[
{
"address": "  ", 
"available_bike": "1", 
"available_spaces": "1", 
"city": "paris", 
"last_update": "2011-05-23 22:39:38.527381", 
"latitude": 48.869202131, 
"longitude": 2.33260909867, 
"name": "00001 - BORNE TEST CACHAN 1", 
"sid": "1"
}, 
{
"address": "FACE 50 RUE RENE BOULANGER - 75010 PARIS", 
"available_bike": "34", 
"available_spaces": "26", 
"city": "paris", 
"last_update": "2011-05-23 22:39:52.394976", 
"latitude": 48.8684630946, 
"longitude": 2.35996458418, 
"name": "10001 - JOHANN STRAUSS", 
"sid": "10001"
}, 
{
"address": "3 BD STRASBOURG - 75010 PARIS", 
"available_bike": "12", 
"available_spaces": "3", 
"city": "paris", 
"last_update": "2011-05-23 22:39:53.384413", 
"latitude": 48.8694257052, 
"longitude": 2.35416140759, 
"name": "10002 - STRASBOURG", 
"sid": "10002"
}, 
{
"address": "1 RUE D'HAUTEVILLE - 75010 PARIS", 
"available_bike": 0, 
"available_spaces": "14", 
"city": "paris", 
"last_update": "2011-05-23 22:39:54.210514", 
"latitude": 48.8704957668, 
"longitude": 2.34951605747, 
"name": "10003 - HAUTEVILLE", 
"sid": "10003"
}, 
{
"address": "7 RUE DE METZ - 75010 PARIS", 
"available_bike": "40", 
"available_spaces": "18", 
"city": "paris", 
"last_update": "2011-05-23 22:39:51.981058", 
"latitude": 48.8710435329, 
"longitude": 2.35338537316, 
"name": "10004 - METZ", 
"sid": "10004"
}, 
{
"address": "59 RUE DES PETITES ECURIES - 75010 PARIS", 
"available_bike": "14", 
"available_spaces": "1", 
"city": "paris", 
"last_update": "2011-05-23 22:39:51.391094", 
"latitude": 48.8739919624, 
"longitude": 2.34819529145, 
"name": "10005 - CONSERVATOIRE", 
"sid": "10005"
}, 
{
"address": "5 RUE DES PETITES ECURIES - 75010 PARIS", 
"available_bike": "24", 
"available_spaces": "4", 
"city": "paris", 
"last_update": "2011-05-23 22:39:51.172048", 
"latitude": 48.873065599, 
"longitude": 2.35397185265, 
"name": "10006 - PETITES ECURIES", 
"sid": "10006"
}, 
{
"address": "57 RUE DU CHATEAU D'EAU - 75010 PARIS", 
"available_bike": "15", 
"available_spaces": "4", 
"city": "paris", 
"last_update": "2011-05-23 22:39:50.529140", 
"latitude": 48.8723463774, 
"longitude": 2.35557928074, 
"name": "10007 - CHATEAU D'EAU", 
"sid": "10007"
}, 
{
"address": "FACE 14 RUE HITTORFF - 75010 PARIS", 
"available_bike": "12", 
"available_spaces": "5", 
"city": "paris", 
"last_update": "2011-05-23 22:39:50.346126", 
"latitude": 48.872049478, 
"longitude": 2.35754105475, 
"name": "10009 - HITTORFF", 
"sid": "10009"
}, 
{
"address": "41 QUAI DE L'HORLOGE - 75001 PARIS", 
"available_bike": "3", 
"available_spaces": "12", 
"city": "paris", 
"last_update": "2011-05-23 22:39:56.580738", 
"latitude": 48.8571230881, 
"longitude": 2.34183108134, 
"name": "01001 - ILE DE LA CITE PONT NEUF", 
"sid": "1001"
}, 
{
"address": "FACE 8 PLACE JACQUES BONSERGENT - 75010 PARIS", 
"available_bike": "16", 
"available_spaces": "15", 
"city": "paris", 
"last_update": "2011-05-23 22:39:49.959967", 
"latitude": 48.8708804455, 
"longitude": 2.3612054136, 
"name": "10010 - JACQUES BONSERGENT", 
"sid": "10010"
}, 
{
"address": "3 RUE DU CHATEAU D'EAU - 75010 PARIS", 
"available_bike": "16", 
"available_spaces": "1", 
"city": "paris", 
"last_update": "2011-05-23 22:39:49.742794", 
"latitude": 48.8692715172, 
"longitude": 2.36215831045, 
"name": "10011 - BOURSE DU TRAVAIL", 
"sid": "10011"
}, 
{
"address": "58 RUE DES VINAIGRIERS - 75010 PARIS", 
"available_bike": "19", 
"available_spaces": "5", 
"city": "paris", 
"last_update": "2011-05-23 22:39:49.311516", 
"latitude": 48.8732984601, 
"longitude": 2.35898573917, 
"name": "10012 - VINAIGRIERS", 
"sid": "10012"
}, 
{
"address": "2 RUE ALIBERT - 75010 PARIS", 
"available_bike": "31", 
"available_spaces": "27", 
"city": "paris", 
"last_update": "2011-05-23 22:39:49.931553", 
"latitude": 48.8709961872, 
"longitude": 2.36613731271, 
"name": "10013 - SAINT LOUIS", 
"sid": "10013"
}, 
{
"address": "14 RUE DE MARSEILLE - 75010 PARIS", 
"available_bike": "22", 
"available_spaces": "32", 
"city": "paris", 
"last_update": "2011-05-23 22:39:48.143054", 
"latitude": 48.8716078002, 
"longitude": 2.36410767091, 
"name": "10014 - BEAUREPAIRE", 
"sid": "10014"
}, 
{
"address": "46 RUE LUCIE SAMPAIX - 75010 PARIS", 
"available_bike": "18", 
"available_spaces": "30", 
"city": "paris", 
"last_update": "2011-05-23 22:39:48.055907", 
"latitude": 48.8741066306, 
"longitude": 2.36247400118, 
"name": "10015 - RECOLLETS", 
"sid": "10015"
}, 
{
"address": "29 RUE DES RECOLLETS - 75010 PARIS", 
"available_bike": "5", 
"available_spaces": "11", 
"city": "paris", 
"last_update": "2011-05-23 22:39:46.911209", 
"latitude": 48.875113805, 
"longitude": 2.35947699886, 
"name": "10016 - VILLEMIN", 
"sid": "10016"
}, 
{
"address": "1 RUE DE LA FIDELITE - 75010 PARIS", 
"available_bike": "11", 
"available_spaces": "1", 
"city": "paris", 
"last_update": "2011-05-23 22:39:47.355605", 
"latitude": 48.8746918342, 
"longitude": 2.35702434429, 
"name": "10017 - GARE DE L'EST SAINT LAURENT", 
"sid": "10017"
}, 
{
"address": "110-112 RUE FAUBOURG SAINT DENIS - 75010 PARIS", 
"available_bike": "6", 
"available_spaces": "24", 
"city": "paris", 
"last_update": "2011-05-23 22:39:47.778513", 
"latitude": 48.8756266675, 
"longitude": 2.35607094383, 
"name": "10018 - ALBAN SATRAGNE", 
"sid": "10018"
}, 
{
"address": "23 RUE PARADIS - 75010 PARIS", 
"available_bike": "9", 
"available_spaces": "22", 
"city": "paris", 
"last_update": "2011-05-23 22:39:47.304723", 
"latitude": 48.8749621178, 
"longitude": 2.35250097236, 
"name": "10019 - PARADIS", 
"sid": "10019"
}, 
{
"address": "14 AVENUE VICTORIA - 75001 PARIS", 
"available_bike": 0, 
"available_spaces": "19", 
"city": "paris", 
"last_update": "2011-05-23 22:39:40.318283", 
"latitude": 48.8579406369, 
"longitude": 2.3469524437, 
"name": "01002 - PLACE DU CHATELET", 
"sid": "1002"
}, 
{
"address": "59 RUE CHABROL - 75010 PARIS", 
"available_bike": "9", 
"available_spaces": "2", 
"city": "paris", 
"last_update": "2011-05-23 22:39:45.903227", 
"latitude": 48.8770742865, 
"longitude": 2.35123442396, 
"name": "10020 - CHABROL", 
"sid": "10020"
}, 
{
"address": "4 RUE DES PETITS HOTELS - 75010 PARIS", 
"available_bike": "9", 
"available_spaces": "10", 
"city": "paris", 
"last_update": "2011-05-23 22:39:45.497978", 
"latitude": 48.8772625552, 
"longitude": 2.35474986127, 
"name": "10021 - MARCHE ST QUENTIN", 
"sid": "10021"
}, 
{
"address": "FACE 124 RUE DU FAUBOURG SAINT DENIS - 75010 PARIS", 
"available_bike": "5", 
"available_spaces": "37", 
"city": "paris", 
"last_update": "2011-05-23 22:39:45.324225", 
"latitude": 48.8766692209, 
"longitude": 2.35589419239, 
"name": "10022 - CHABROL SAINT QUENTIN", 
"sid": "10022"
}, 
{
"address": "1 AVENUE DE VERDUN - 75010 PARIS", 
"available_bike": "2", 
"available_spaces": "12", 
"city": "paris", 
"last_update": "2011-05-23 22:39:44.888876", 
"latitude": 48.876057217, 
"longitude": 2.3607990489, 
"name": "10023 - VERDUN", 
"sid": "10023"
}, 
{
"address": "2 RUE DU BUISSON SAINT LOUIS - 75010 PARIS", 
"available_bike": "18", 
"available_spaces": 0, 
"city": "paris", 
"last_update": "2011-05-23 22:41:52.398565", 
"latitude": 48.8717045499, 
"longitude": 2.37224129046, 
"name": "10024 - BUISSON SAINT LOUIS", 
"sid": "10024"
}, 
{
"address": "148 QUAI DE JEMMAPES - 75010 PARIS", 
"available_bike": "10", 
"available_spaces": "4", 
"city": "paris", 
"last_update": "2011-05-23 22:39:44.030337", 
"latitude": 48.8773502275, 
"longitude": 2.36607272508, 
"name": "10025 - ECLUSES SAINT MARTIN", 
"sid": "10025"
}, 
{
"address": "2 RUE DE CHATEAU LANDON - 75010 PARIS", 
"available_bike": "16", 
"available_spaces": "43", 
"city": "paris", 
"last_update": "2011-05-23 22:39:43.566271", 
"latitude": 48.8791035616, 
"longitude": 2.36247643219, 
"name": "10026 - CHATEAU LANDON", 
"sid": "10026"
}, 
{
"address": "4 RUE DE DUNKERQUE - 75010 PARIS", 
"available_bike": "3", 
"available_spaces": "16", 
"city": "paris", 
"last_update": "2011-05-23 22:39:32.880188", 
"latitude": 48.879365014, 
"longitude": 2.35823884785, 
"name": "10027 - DUNKERQUE", 
"sid": "10027"
}, 
{
"address": "24 RUE DE DUNKERQUE - 75010 PARIS", 
"available_bike": "3", 
"available_spaces": "26", 
"city": "paris", 
"last_update": "2011-05-23 22:39:42.734722", 
"latitude": 48.8804713053, 
"longitude": 2.35261160376, 
"name": "10028 - GARE DU NORD DENAN", 
"sid": "10028"
}, 
{
"address": "39 RUE DE DUNKERQUE - 75010 PARIS", 
"available_bike": "1", 
"available_spaces": "21", 
"city": "paris", 
"last_update": "2011-05-23 22:39:44.797957", 
"latitude": 48.880741086, 
"longitude": 2.35128991867, 
"name": "10029 - PLACE DE ROUBAIX", 
"sid": "10029"
}, 
{
"address": "7 RUE SAINT DENIS - 75001 PARIS", 
"available_bike": "3", 
"available_spaces": "47", 
"city": "paris", 
"last_update": "2011-05-23 22:40:23.255923", 
"latitude": 48.8589651904, 
"longitude": 2.34710246326, 
"name": "01003 - RIVOLI SAINT DENIS", 
"sid": "1003"
}, 
{
"address": "48 RUE LOUIS BLANC - 75010 PARIS", 
"available_bike": "26", 
"available_spaces": "13", 
"city": "paris", 
"last_update": "2011-05-23 22:39:42.306967", 
"latitude": 48.8820152212, 
"longitude": 2.36345897701, 
"name": "10031 - AQUEDUC", 
"sid": "10031"
}, 
{
"address": "N\u00b0 12-14 RUE CLAUDE VELLEFAUX- 75010 PARIS", 
"available_bike": "7", 
"available_spaces": "23", 
"city": "paris", 
"last_update": "2011-05-23 22:40:08.387159", 
"latitude": 48.8727297356, 
"longitude": 2.37002121502, 
"name": "10032 - DODU", 
"sid": "10032"
}, 
{
"address": "15 RUE SAINT VINCENT DE PAUL - 75010 PARIS", 
"available_bike": "1", 
"available_spaces": "23", 
"city": "paris", 
"last_update": "2011-05-23 22:39:41.997598", 
"latitude": 48.8808398125, 
"longitude": 2.35238006296, 
"name": "10033 - LARIBOISIERE", 
"sid": "10033"
}, 
{
"address": "68 RUE LOUIS BLANC - 75010 PARIS", 
"available_bike": "4", 
"available_spaces": "15", 
"city": "paris", 
"last_update": "2011-05-23 22:39:40.949540", 
"latitude": 48.8838493184, 
"longitude": 2.36005308899, 
"name": "10034 - CHAPELLE LOUIS BLANC", 
"sid": "10034"
}, 
{
"address": "1 BOULEVARD DE LA CHAPELLE - 75010 PARIS", 
"available_bike": "4", 
"available_spaces": "20", 
"city": "paris", 
"last_update": "2011-05-23 22:39:40.315678", 
"latitude": 48.884252836, 
"longitude": 2.36438676921, 
"name": "10035 - AUBERVILLIERS", 
"sid": "10035"
}, 
{
"address": "80 RUE DE L'AQUEDUC - 75010 PARIS", 
"available_bike": "6", 
"available_spaces": "23", 
"city": "paris", 
"last_update": "2011-05-23 22:40:06.638183", 
"latitude": 48.8835872005, 
"longitude": 2.36682568822, 
"name": "10036 - AQUEDUC", 
"sid": "10036"
}, 
{
"address": "EGLISE SAINT JOSEPH ARTISAN - 75010 PARIS", 
"available_bike": 0, 
"available_spaces": "25", 
"city": "paris", 
"last_update": "2011-05-23 22:39:41.952240", 
"latitude": 48.8811064283, 
"longitude": 2.36798252895, 
"name": "10037 - VERSION 2 JAURES", 
"sid": "10037"
}, 
{
"address": "69 RUE DE LA GRANGE AUX BELLES - 75010 PARIS", 
"available_bike": "2", 
"available_spaces": "26", 
"city": "paris", 
"last_update": "2011-05-23 22:39:40.219290", 
"latitude": 48.8775649496, 
"longitude": 2.36984713827, 
"name": "10038 - COLONEL FABIEN", 
"sid": "10038"
}, 
{
"address": "37 RUE SAMBRE ET MEUSE - 75010 PARIS", 
"available_bike": "9", 
"available_spaces": "15", 
"city": "paris", 
"last_update": "2011-05-23 22:39:40.237056", 
"latitude": 48.8742743879, 
"longitude": 2.37401424156, 
"name": "10039 - SAMBRE ET MEUSE", 
"sid": "10039"
}, 
{
"address": "1 PLACE MARGUERITE DE NAVARRE - 75001 PARIS", 
"available_bike": "37", 
"available_spaces": "9", 
"city": "paris", 
"last_update": "2011-05-23 22:39:40.191570", 
"latitude": 48.8602774099, 
"longitude": 2.34638079595, 
"name": "01004 - MARGUERITE DE NAVARRE", 
"sid": "1004"
}, 
{
"address": "8 BOULEVARD DE LA VILETTE - 75010 PARIS", 
"available_bike": "4", 
"available_spaces": "43", 
"city": "paris", 
"last_update": "2011-05-23 22:40:04.908321", 
"latitude": 48.8730154367, 
"longitude": 2.37630225056, 
"name": "10040 - BELLEVILLE", 
"sid": "10040"
}, 
{
"address": "FACE 39 BOULEVARD DE LA CHAPELLE - 75010 PARIS", 
"available_bike": "2", 
"available_spaces": "12", 
"city": "paris", 
"last_update": "2011-05-23 22:39:39.420396", 
"latitude": 48.8840657432, 
"longitude": 2.35584234301, 
"name": "10041 - CHARTRES (18 ARR.)", 
"sid": "10041"
}, 
{
"address": "3 RUE DE LA COSSONNERIE - 75001 PARIS", 
"available_bike": "10", 
"available_spaces": "25", 
"city": "paris", 
"last_update": "2011-05-23 22:40:24.145979", 
"latitude": 48.8612387681, 
"longitude": 2.34963646039, 
"name": "01005 - LES HALLES - SEBASTOPOL", 
"sid": "1005"
}, 
{
"address": "14 RUE DU PONT NEUF - 75001 PARIS", 
"available_bike": "7", 
"available_spaces": "15", 
"city": "paris", 
"last_update": "2011-05-23 22:40:23.010953", 
"latitude": 48.8600708337, 
"longitude": 2.34441933385, 
"name": "01009 - PONT NEUF - 14", 
"sid": "1009"
}, 
{
"address": "10 RUE BOUCHER - 75001 PARIS", 
"available_bike": "15", 
"available_spaces": "10", 
"city": "paris", 
"last_update": "2011-05-23 22:40:23.264537", 
"latitude": 48.8592709695, 
"longitude": 2.34416042808, 
"name": "01010 - PONT NEUF", 
"sid": "1010"
}, 
{
"address": "2 RUE DE MAZAGRAN - 75010 PARIS", 
"available_bike": "2", 
"available_spaces": "22", 
"city": "paris", 
"last_update": "2011-05-23 22:41:41.065956", 
"latitude": 48.8701450798, 
"longitude": 2.35116443724, 
"name": "10105 - BONNE NOUVELLE PROP2", 
"sid": "10105"
}, 
{
"address": "9 RUE AMBROISE PARE - 75010 PARIS", 
"available_bike": "6", 
"available_spaces": "41", 
"city": "paris", 
"last_update": "2011-05-23 22:39:58.465152", 
"latitude": 48.8818014415, 
"longitude": 2.35243485046, 
"name": "10107 - MAGENTA PARE", 
"sid": "10107"
}, 
{
"address": "36 RUE DE L'ARBRE SEC - 75001 PARIS", 
"available_bike": "3", 
"available_spaces": "17", 
"city": "paris", 
"last_update": "2011-05-23 22:40:22.561509", 
"latitude": 48.8601428418, 
"longitude": 2.34229446296, 
"name": "01011 - RIVOLI MAIRIE DU 1ER", 
"sid": "1011"
}, 
{
"address": "10 RUE LOUIS BLANC - 75010 PARIS", 
"available_bike": "4", 
"available_spaces": "27", 
"city": "paris", 
"last_update": "2011-05-23 22:41:32.263052", 
"latitude": 48.8793538315, 
"longitude": 2.3682948899, 
"name": "10110 - LOUIS BLANC (PROP 2)", 
"sid": "10110"
}, 
{
"address": "100 QUAI DE JEMMAPES - 75010 PARIS", 
"available_bike": "15", 
"available_spaces": "5", 
"city": "paris", 
"last_update": "2011-05-23 22:41:48.476757", 
"latitude": 48.8734142291, 
"longitude": 2.36420397819, 
"name": "10111 - BOURSE DU TRAVAIL", 
"sid": "10111"
}, 
{
"address": "151 AVENUE PARMENTIER - 75010 PARIS", 
"available_bike": "42", 
"available_spaces": 0, 
"city": "paris", 
"last_update": "2011-05-23 22:41:32.853397", 
"latitude": 48.87130981, 
"longitude": 2.36976146229, 
"name": "10113 - PARMENTIER LOUVEL-TESSIER", 
"sid": "10113"
}, 
{
"address": "12 BIS RUE DE LA GRANGE AUX BELLES - 75010 PARIS", 
"available_bike": "17", 
"available_spaces": "42", 
"city": "paris", 
"last_update": "2011-05-23 22:41:31.293526", 
"latitude": 48.8751302106, 
"longitude": 2.36671186459, 
"name": "10114 - HOPITAL SAINT LOUIS", 
"sid": "10114"
}, 
{
"address": "1, 3 RUE DES ECLUSES SAINT MARTIN - 75010 PARIS", 
"available_bike": "27", 
"available_spaces": 0, 
"city": "paris", 
"last_update": "2011-05-23 22:40:06.682386", 
"latitude": 48.8764780229, 
"longitude": 2.36782990699, 
"name": "10115 - DODU", 
"sid": "10115"
}, 
{
"address": "FACE 29 RUE JEAN JACQUES ROUSSEAU - 75001 PARIS", 
"available_bike": 0, 
"available_spaces": "21", 
"city": "paris", 
"last_update": "2011-05-23 22:40:13.527565", 
"latitude": 48.8628480802, 
"longitude": 2.34147742145, 
"name": "01012 - BOURSE DU COMMERCE", 
"sid": "1012"
}, 
{
"address": "186 RUE SAINT HONORE - 75001 PARIS", 
"available_bike": "16", 
"available_spaces": "49", 
"city": "paris", 
"last_update": "2011-05-23 22:40:11.404004", 
"latitude": 48.8624257439, 
"longitude": 2.33822181733, 
"name": "01013 - SAINT HONORE", 
"sid": "1013"
}, 
{
"address": "5 RUE DE L'ECHELLE - 75001 PARIS", 
"available_bike": "2", 
"available_spaces": "22", 
"city": "paris", 
"last_update": "2011-05-23 22:40:11.043897", 
"latitude": 48.8637019143, 
"longitude": 2.33408076356, 
"name": "01014 - RIVOLI MUSEE DU LOUVRE", 
"sid": "1014"
}, 
{
"address": "2 PLACE ANDRE MALRAUX - 75001 PARIS", 
"available_bike": "4", 
"available_spaces": "15", 
"city": "paris", 
"last_update": "2011-05-23 22:39:37.781262", 
"latitude": 48.8639535926, 
"longitude": 2.33566090387, 
"name": "01015 - PLACE ANDRE MALRAUX", 
"sid": "1015"
}, 
{
"address": "8-10 RUE DE DUNKERQUE - 75010 PARIS", 
"available_bike": "20", 
"available_spaces": "6", 
"city": "paris", 
"last_update": "2011-05-23 22:40:08.566061", 
"latitude": 48.8793831618, 
"longitude": 2.35723052477, 
"name": "10151 - GARE DU NORD 1", 
"sid": "10151"
}, 
{
"address": "3 BOULEVARD DE DENAIN - 75010 PARIS", 
"available_bike": "1", 
"available_spaces": "24", 
"city": "paris", 
"last_update": "2011-05-23 22:40:08.622496", 
"latitude": 48.8787814836, 
"longitude": 2.35420533677, 
"name": "10152 - GARE DU NORD 2", 
"sid": "10152"
}, 
{
"address": "7 BOULEVARD DE DENAIN - 75010 PARIS", 
"available_bike": "1", 
"available_spaces": "19", 
"city": "paris", 
"last_update": "2011-05-23 22:40:08.262412", 
"latitude": 48.8790331115, 
"longitude": 2.35431442701, 
"name": "10153 - GARE DU NORD 3", 
"sid": "10153"
}, 
{
"address": "27 RUE THERESE - 75001 PARIS", 
"available_bike": "13", 
"available_spaces": "12", 
"city": "paris", 
"last_update": "2011-05-23 22:39:37.734548", 
"latitude": 48.866326236, 
"longitude": 2.3344484147, 
"name": "01016 - OPERA PYRAMIDES", 
"sid": "1016"
}, 
{
"address": "FACE 129 RUE DU FBG SAINT MARTIN - 75010 PARIS", 
"available_bike": "3", 
"available_spaces": "30", 
"city": "paris", 
"last_update": "2011-05-23 22:40:07.851120", 
"latitude": 48.8758327142, 
"longitude": 2.35987243649, 
"name": "10161 - GARE DE L'EST", 
"sid": "10161"
}, 
{
"address": "215 RUE SAINT HONORE - 75001 PARIS", 
"available_bike": "1", 
"available_spaces": "18", 
"city": "paris", 
"last_update": "2011-05-23 22:40:10.534257", 
"latitude": 48.8654722832, 
"longitude": 2.33059331294, 
"name": "01017 - SAINT HONORE", 
"sid": "1017"
}, 
{
"address": "2 RUE D'ALGER - 75001 PARIS", 
"available_bike": "4", 
"available_spaces": "16", 
"city": "paris", 
"last_update": "2011-05-23 22:39:37.640757", 
"latitude": 48.8647532268, 
"longitude": 2.32949000369, 
"name": "01018 - RIVOLI TUILERIE", 
"sid": "1018"
}, 
{
"address": "237 RUE SAINT HONORE - 75001 PARIS", 
"available_bike": 0, 
"available_spaces": "14", 
"city": "paris", 
"last_update": "2011-05-23 22:40:09.988942", 
"latitude": 48.8665955569, 
"longitude": 2.32834541888, 
"name": "01019 - SAINT HONORE VENDOME", 
"sid": "1019"
}, 
{
"address": "2 RUE CAMBON - 75001 PARIS", 
"available_bike": "3", 
"available_spaces": "37", 
"city": "paris", 
"last_update": "2011-05-23 22:40:09.879238", 
"latitude": 48.8661009779, 
"longitude": 2.32522592932, 
"name": "01020 - RIVOLI CONCORDE", 
"sid": "1020"
}, 
{
"address": "37 RUE CASANOVA - 75001 PARIS", 
"available_bike": 0, 
"available_spaces": "22", 
"city": "paris", 
"last_update": "2011-05-23 22:39:37.467732", 
"latitude": 48.8681684822, 
"longitude": 2.33044311211, 
"name": "01022 - RUE DE LA PAIX", 
"sid": "1022"
}, 
{
"address": "165 RUE SAINT HONORE - 75001 PARIS", 
"available_bike": 0, 
"available_spaces": "22", 
"city": "paris", 
"last_update": "2011-05-23 22:39:37.423522", 
"latitude": 48.8635131929, 
"longitude": 2.33463927367, 
"name": "01023 - ANDRE MALRAUX MUSEE DU LOUVRE", 
"sid": "1023"
}, 
{
"address": "20 RUE COQUILLIERE - 75001 PARIS", 
"available_bike": "2", 
"available_spaces": "17", 
"city": "paris", 
"last_update": "2011-05-23 22:40:09.294070", 
"latitude": 48.863737787, 
"longitude": 2.34258087392, 
"name": "01024 - LOUVRE COQ HERON", 
"sid": "1024"
}, 
{
"address": "2 RUE DE L'ORATOIRE - 75001 PARIS", 
"available_bike": "1", 
"available_spaces": "17", 
"city": "paris", 
"last_update": "2011-05-23 22:40:09.336560", 
"latitude": 48.8612663418, 
"longitude": 2.34001981072, 
"name": "01025 - TEMPLE DE L'ORATOIRE", 
"sid": "1025"
}, 
{
"address": "PLACE DU LIEUTENANT HENRI KARCHER - 75001 PARIS", 
"available_bike": "7", 
"available_spaces": "24", 
"city": "paris", 
"last_update": "2011-05-23 22:39:39.966061", 
"latitude": 48.8633424301, 
"longitude": 2.33997905586, 
"name": "01026 - COLONEL DRIANT", 
"sid": "1026"
}, 
{
"address": "RUE BERGER - 75001 PARIS", 
"available_bike": "10", 
"available_spaces": "33", 
"city": "paris", 
"last_update": "2011-05-23 22:41:22.038146", 
"latitude": 48.8612390332, 
"longitude": 2.34674874082, 
"name": "01028 - LES HALLES - PORTE", 
"sid": "1028"
}, 
{
"address": "2 BOULEVARD RICHARD LENOIR - 75011 PARIS", 
"available_bike": 0, 
"available_spaces": "18", 
"city": "paris", 
"last_update": "2011-05-23 22:39:36.627451", 
"latitude": 48.8536046454, 
"longitude": 2.369777604, 
"name": "11001 - BASTILLE RICHARD LENOIR", 
"sid": "11001"
}, 
{
"address": "37 RUE DE LA ROQUETTE - 75011 PARIS", 
"available_bike": "10", 
"available_spaces": "10", 
"city": "paris", 
"last_update": "2011-05-23 22:40:00.095661", 
"latitude": 48.8552123666, 
"longitude": 2.37336060314, 
"name": "11002 - ROQUETTE THIERE", 
"sid": "11002"
}, 
{
"address": "29 RUE KELLER - 75011 PARIS", 
"available_bike": "18", 
"available_spaces": "11", 
"city": "paris", 
"last_update": "2011-05-23 22:40:06.958883", 
"latitude": 48.8555802149, 
"longitude": 2.37540383437, 
"name": "11003 - ROQUETTE DALLERY", 
"sid": "11003"
}, 
{
"address": "3 RUE DE CHARONNE - 75011 PARIS", 
"available_bike": "30", 
"available_spaces": "1", 
"city": "paris", 
"last_update": "2011-05-23 22:40:06.788954", 
"latitude": 48.8521923023, 
"longitude": 2.37427097007, 
"name": "11004 - CHARONNE SAINT ANTOINE", 
"sid": "11004"
}, 
{
"address": "169 AVENUE LEDRU ROLLIN - 75011 PARIS", 
"available_bike": "36", 
"available_spaces": 0, 
"city": "paris", 
"last_update": "2011-05-23 22:39:36.477462", 
"latitude": 48.8562799572, 
"longitude": 2.37920433419, 
"name": "11006 - LEDRU ROLLIN-BASFROI", 
"sid": "11006"
}, 
{
"address": "17 RUE JEAN MACE - 75011 PARIS", 
"available_bike": "45", 
"available_spaces": "18", 
"city": "paris", 
"last_update": "2011-05-23 22:40:06.440227", 
"latitude": 48.8529890639, 
"longitude": 2.38323294223, 
"name": "11007 - FAIDHERBE PALAIS DE LA FEMME", 
"sid": "11007"
}, 
{
"address": "223 RUE DU FAUBOURG SAINT ANTOINE - 75011 PARIS", 
"available_bike": "35", 
"available_spaces": 0, 
"city": "paris", 
"last_update": "2011-05-23 22:40:05.447285", 
"latitude": 48.8503643624, 
"longitude": 2.38415667127, 
"name": "11008 - FAIDHERBE CHALIGNY", 
"sid": "11008"
}, 
{
"address": "45 RUE DES BOULETS - 75011 PARIS", 
"available_bike": "23", 
"available_spaces": 0, 
"city": "paris", 
"last_update": "2011-05-23 22:40:06.074465", 
"latitude": 48.8520161257, 
"longitude": 2.38882944747, 
"name": "11009 - RUE DES BOULETS", 
"sid": "11009"
}, 
{
"address": "1 RUE DES BOULETS - 75011 PARIS", 
"available_bike": "37", 
"available_spaces": "3", 
"city": "paris", 
"last_update": "2011-05-23 22:40:06.146970", 
"latitude": 48.8491479168, 
"longitude": 2.39153660685, 
"name": "11010 - ST ANTOINE GONNET", 
"sid": "11010"
}, 
{
"address": "FACE 86 BOULEVARD RICHARD LENOIR - 75011 PARIS", 
"available_bike": "24", 
"available_spaces": "1", 
"city": "paris", 
"last_update": "2011-05-23 22:41:25.105939", 
"latitude": 48.861773443, 
"longitude": 2.37249339788, 
"name": "11011 - RICHARD LENOIR", 
"sid": "11011"
}, 
{
"address": "93 RUE DE MONTREUIL - 75011 PARIS", 
"available_bike": "19", 
"available_spaces": "13", 
"city": "paris", 
"last_update": "2011-05-23 22:40:05.480716", 
"latitude": 48.8505491756, 
"longitude": 2.39324038768, 
"name": "11012 - MONTREUIL VOLTAIRE", 
"sid": "11012"
}, 
{
"address": "5 PLACE DE LA NATION - 75011 PARIS", 
"available_bike": "5", 
"available_spaces": "41", 
"city": "paris", 
"last_update": "2011-05-23 22:40:04.436360", 
"latitude": 48.8493350865, 
"longitude": 2.39487326086, 
"name": "11013 - NATION VOLAIRE", 
"sid": "11013"
}, 
{
"address": "FACE 21 PLACE DE LA NATION - 75011 PARIS", 
"available_bike": "4", 
"available_spaces": "23", 
"city": "paris", 
"last_update": "2011-05-23 22:40:04.517301", 
"latitude": 48.8485699664, 
"longitude": 2.39726917825, 
"name": "11014 - NATION TRONE", 
"sid": "11014"
}, 
{
"address": "5 RUE DU PASSAGE PHILIPPE AUGUSTE - 75011 PARIS", 
"available_bike": "25", 
"available_spaces": "21", 
"city": "paris", 
"last_update": "2011-05-23 22:40:04.160768", 
"latitude": 48.8516187294, 
"longitude": 2.39314621058, 
"name": "11016 - PHILIPPE AUGUSTE", 
"sid": "11016"
}, 
{
"address": "FACE 77 BOULEVARD DE CHARONNE - 75011 PARIS", 
"available_bike": "10", 
"available_spaces": "35", 
"city": "paris", 
"last_update": "2011-05-23 22:41:43.490254", 
"latitude": 48.854124914, 
"longitude": 2.39588642161, 
"name": "11017 - ALEXANDRE DUMAS", 
"sid": "11017"
}, 
{
"address": "87 RUE DE SAINT MAUR - 75011 PARIS", 
"available_bike": "32", 
"available_spaces": "4", 
"city": "paris", 
"last_update": "2011-05-23 22:40:04.588853", 
"latitude": 48.8643780481, 
"longitude": 2.37794402594, 
"name": "11018 - SAINT MAUR AVENUE DE LA REPUBLIQUE", 
"sid": "11018"
}, 
{
"address": "156 RUE DE CHARONNE - 75011 PARIS", 
"available_bike": "32", 
"available_spaces": 0, 
"city": "paris", 
"last_update": "2011-05-23 22:40:04.518714", 
"latitude": 48.8554036336, 
"longitude": 2.39056252935, 
"name": "11019 - CHARONNE PHILIPPE AUGUSTE", 
"sid": "11019"
}, 
{
"address": "6 RUE FRANCAISE - 75001 PARIS", 
"available_bike": "9", 
"available_spaces": "9", 
"city": "paris", 
"last_update": "2011-05-23 22:40:02.172257", 
"latitude": 48.8639891016, 
"longitude": 2.34762105504, 
"name": "01102 - FRANCAISE", 
"sid": "1102"
}, 
{
"address": "1 RUE DE BELFORT - 75011 PARIS", 
"available_bike": "33", 
"available_spaces": 0, 
"city": "paris", 
"last_update": "2011-05-23 22:40:05.104403", 
"latitude": 48.8563954262, 
"longitude": 2.38292270096, 
"name": "11020 - CHARONNE", 
"sid": "11020"
}, 
{
"address": "212 BOULEVARD CHARONNE - 75011 PARIS", 
"available_bike": "5", 
"available_spaces": "17", 
"city": "paris", 
"last_update": "2011-05-23 22:40:01.655994", 
"latitude": 48.8583875997, 
"longitude": 2.39025232338, 
"name": "11021 - PHILIPPE AUGUSTE (20EME ARR.)", 
"sid": "11021"
}, 
{
"address": "142 RUE DE LA ROQUETTE - 75011 PARIS", 
"available_bike": "14", 
"available_spaces": "1", 
"city": "paris", 
"last_update": "2011-05-23 22:40:04.784365", 
"latitude": 48.8578337764, 
"longitude": 2.38197053767, 
"name": "11022 - LEON BLUM ROQUETTE", 
"sid": "11022"
}, 
{
"address": "2 RUE SAINT MAUR - 75011 PARIS", 
"available_bike": "36", 
"available_spaces": "10", 
"city": "paris", 
"last_update": "2011-05-23 22:40:03.400446", 
"latitude": 48.8587318564, 
"longitude": 2.38370113619, 
"name": "11023 - LEO FROT ROQUETTE", 
"sid": "11023"
}, 
{
"address": "82 RUE SEDAINE - 75011 PARIS", 
"available_bike": "33", 
"available_spaces": "16", 
"city": "paris", 
"last_update": "2011-05-23 22:40:03.111213", 
"latitude": 48.858733596, 
"longitude": 2.379002009, 
"name": "11024 - BOULEVARD VOLTAIRE", 
"sid": "11024"
}, 
{
"address": "9 RUE FROMENT - 75011 PARIS", 
"available_bike": "38", 
"available_spaces": "8", 
"city": "paris", 
"last_update": "2011-05-23 22:40:03.024069", 
"latitude": 48.8569111844, 
"longitude": 2.37272163721, 
"name": "11025 - FROMENT BREGUET", 
"sid": "11025"
}, 
{
"address": "105 RUE DU CHEMIN VERT - 75011 PARIS", 
"available_bike": "33", 
"available_spaces": "13", 
"city": "paris", 
"last_update": "2011-05-23 22:40:03.659753", 
"latitude": 48.8610514424, 
"longitude": 2.38151018894, 
"name": "11026 - CHEMIN VERT SAINT MAUR", 
"sid": "11026"
}, 
{
"address": "17 RUE SAINT AMBROISE - 75011 PARIS", 
"available_bike": "34", 
"available_spaces": "3", 
"city": "paris", 
"last_update": "2011-05-23 22:40:02.768834", 
"latitude": 48.861987621, 
"longitude": 2.37730193897, 
"name": "11027 - SAINT AMBROISE PARMENTIER", 
"sid": "11027"
}, 
{
"address": "FACE 20 RUE GUILLAUME BERTRAND - 75011 PARIS", 
"available_bike": "22", 
"available_spaces": "14", 
"city": "paris", 
"last_update": "2011-05-23 22:40:02.442521", 
"latitude": 48.8639007604, 
"longitude": 2.38065443341, 
"name": "11028 - BLUETS REPUBLIQUE", 
"sid": "11028"
}, 
{
"address": "137 BOULEVARD MENILMONTANT - 75011 PARIS", 
"available_bike": "36", 
"available_spaces": "4", 
"city": "paris", 
"last_update": "2011-05-23 22:40:01.704527", 
"latitude": 48.8667399494, 
"longitude": 2.38285007514, 
"name": "11029 - MENILMONTANT OBERKAMPF", 
"sid": "11029"
}, 
{
"address": "80 RUE OBERKAMPF - 75011 PARIS", 
"available_bike": "22", 
"available_spaces": 0, 
"city": "paris", 
"last_update": "2011-05-23 22:40:01.945363", 
"latitude": 48.8650437098, 
"longitude": 2.37616002435, 
"name": "11030 - SAINT MAUR OBERKAMPF", 
"sid": "11030"
}, 
{
"address": "1 RUE JACQUARD - 75011 PARIS", 
"available_bike": "23", 
"available_spaces": 0, 
"city": "paris", 
"last_update": "2011-05-23 22:40:02.386780", 
"latitude": 48.8644245999, 
"longitude": 2.37290386426, 
"name": "11031 - PARMENTIER", 
"sid": "11031"
}, 
{
"address": "81 BIS RUE JP TIMBAUD - 75011 PARIS", 
"available_bike": "25", 
"available_spaces": "22", 
"city": "paris", 
"last_update": "2011-05-23 22:40:01.578090", 
"latitude": 48.8679192168, 
"longitude": 2.37751086642, 
"name": "11032 - METALLOS", 
"sid": "11032"
}, 
{
"address": "FACE 23 BD RICHARD LENOIR - 75011 PARIS", 
"available_bike": "11", 
"available_spaces": "17", 
"city": "paris", 
"last_update": "2011-05-23 22:40:00.859456", 
"latitude": 48.8567050643, 
"longitude": 2.37067847683, 
"name": "11033 - BREGUET SABIN", 
"sid": "11033"
}, 
{
"address": "124 AVENUE PARMENTIER - 75011 PARIS", 
"available_bike": "47", 
"available_spaces": 0, 
"city": "paris", 
"last_update": "2011-05-23 22:40:00.726817", 
"latitude": 48.8678397976, 
"longitude": 2.37290621233, 
"name": "11034 - PARMENTIER FONTAINE AU ROI", 
"sid": "11034"
}, 
{
"address": "140 AVENUE PARMENTIER - 75011 PARIS", 
"available_bike": "43", 
"available_spaces": "10", 
"city": "paris", 
"last_update": "2011-05-23 22:40:00.309275", 
"latitude": 48.8690983234, 
"longitude": 2.37189894721, 
"name": "11035 - GONCOURT", 
"sid": "11035"
}, 
{
"address": "FACE 28 RUE JULES FERRY - 75011 PARIS", 
"available_bike": "13", 
"available_spaces": "45", 
"city": "paris", 
"last_update": "2011-05-23 22:40:01.677531", 
"latitude": 48.8684343958, 
"longitude": 2.36774342446, 
"name": "11036 - JULES FERRY FAUBOURG DU TEMPLE", 
"sid": "11036"
}, 
{
"address": "2 RUE DU FAUBOURG DU TEMPLE - 75011 PARIS", 
"available_bike": "9", 
"available_spaces": "22", 
"city": "paris", 
"last_update": "2011-05-23 22:40:00.178947", 
"latitude": 48.8676891752, 
"longitude": 2.36474592312, 
"name": "11037 - FAUBOURG DU TEMPLE PLACE DE LA REPUBLIQUE", 
"sid": "11037"
}, 
{
"address": "44 BD DU TEMPLE - 75011 PARIS", 
"available_bike": "13", 
"available_spaces": "32", 
"city": "paris", 
"last_update": "2011-05-23 22:39:59.733886", 
"latitude": 48.8656938865, 
"longitude": 2.36515353995, 
"name": "11038 - TEMPLE REPUBLIQUE", 
"sid": "11038"
}, 
{
"address": "FACE 121 BOULEVARD RICHARD LENOIR - 75011 PARIS", 
"available_bike": "7", 
"available_spaces": "28", 
"city": "paris", 
"last_update": "2011-05-23 22:39:59.628339", 
"latitude": 48.8657377412, 
"longitude": 2.36944465156, 
"name": "11039 - JULES FERRY REPUBLIQUE", 
"sid": "11039"
}, 
{
"address": "18 BD DU TEMPLE - 75011 PARIS", 
"available_bike": "22", 
"available_spaces": "14", 
"city": "paris", 
"last_update": "2011-05-23 22:39:59.558944", 
"latitude": 48.8644803446, 
"longitude": 2.36618817203, 
"name": "11040 - TEMPLE JEAN PIERRE TIMBAUD", 
"sid": "11040"
}, 
{
"address": "2 RUE LACHARRIERE - 75011 PARIS", 
"available_bike": "36", 
"available_spaces": 0, 
"city": "paris", 
"last_update": "2011-05-23 22:39:58.928338", 
"latitude": 48.8606939741, 
"longitude": 2.37566639866, 
"name": "11041 - SAINT AMBROISE", 
"sid": "11041"
}, 
{
"address": "1 RUE DU GRAND PRIEURE - 75011 PARIS", 
"available_bike": "22", 
"available_spaces": "23", 
"city": "paris", 
"last_update": "2011-05-23 22:39:58.813081", 
"latitude": 48.8646323021, 
"longitude": 2.3694167209, 
"name": "11042 - OBERKAMPF", 
"sid": "11042"
}, 
{
"address": "PLACE PASDELOUP - 75011 PARIS", 
"available_bike": "16", 
"available_spaces": "5", 
"city": "paris", 
"last_update": "2011-05-23 22:39:57.568718", 
"latitude": 48.8627095951, 
"longitude": 2.36714070344, 
"name": "11043 - CIRQUE D HIVER", 
"sid": "11043"
}, 
{
"address": "FACE 104 BOULEVARD RICHARD LENOIR - 75011 PARIS", 
"available_bike": "13", 
"available_spaces": "10", 
"city": "paris", 
"last_update": "2011-05-23 22:39:57.082415", 
"latitude": 48.8631487565, 
"longitude": 2.37166340135, 
"name": "11044 - RICHARD LENOIR VOLTAIRE NORD", 
"sid": "11044"
}, 
{
"address": "12 BD DES FILLES DU CALVAIRE - 75011 PARIS", 
"available_bike": "18", 
"available_spaces": "23", 
"city": "paris", 
"last_update": "2011-05-23 22:39:56.831884", 
"latitude": 48.8613255023, 
"longitude": 2.36727611919, 
"name": "11045 - SAINT SEBASTIEN FROISSARD", 
"sid": "11045"
}, 
{
"address": "15 RUE CHARLES DELESCLUZE - 75011 PARIS", 
"available_bike": "29", 
"available_spaces": "18", 
"city": "paris", 
"last_update": "2011-05-23 22:39:58.565616", 
"latitude": 48.8523788577, 
"longitude": 2.38072650634, 
"name": "11101 - SQUARE NORDLING", 
"sid": "11101"
}, 
{
"address": "3 RUE ALEXANDRE DUMAS - 75011 PARIS", 
"available_bike": "56", 
"available_spaces": "1", 
"city": "paris", 
"last_update": "2011-05-23 22:39:53.765303", 
"latitude": 48.8527350222, 
"longitude": 2.38906168683, 
"name": "11102 - RUE DES BOULETS ( COMPLEMENTAIRE )", 
"sid": "11102"
}, 
{
"address": "21 RUE PELEE - 75011 PARIS", 
"available_bike": "36", 
"available_spaces": "11", 
"city": "paris", 
"last_update": "2011-05-23 22:41:26.918705", 
"latitude": 48.859895452, 
"longitude": 2.37119812986, 
"name": "11103 - RICHARD LENOIR", 
"sid": "11103"
}, 
{
"address": "170 RUE DE CHARONNE - 75011 PARIS", 
"available_bike": "19", 
"available_spaces": "1", 
"city": "paris", 
"last_update": "2011-05-23 22:39:55.236242", 
"latitude": 48.8557980792, 
"longitude": 2.39275573759, 
"name": "11104 - CHARONNE DU BUREAU", 
"sid": "11104"
}, 
{
"address": "82 AVENUE PARMENTIER - 75011 PARIS", 
"available_bike": "47", 
"available_spaces": "2", 
"city": "paris", 
"last_update": "2011-05-23 22:39:55.192675", 
"latitude": 48.8644418287, 
"longitude": 2.37531499873, 
"name": "11105 - REPUBLIQUE PARMENTIER", 
"sid": "11105"
}, 
{
"address": "11 RUE FAIDHERBE - 75011 PARIS", 
"available_bike": "25", 
"available_spaces": "20", 
"city": "paris", 
"last_update": "2011-05-23 22:39:55.131176", 
"latitude": 48.8514700719, 
"longitude": 2.38351758959, 
"name": "11107 - BIBLIOTHEQUE FAIDHERBE", 
"sid": "11107"
}, 
{
"address": "1 RUE DE LA PIERRE LEVEE - 75011 PARIS", 
"available_bike": "17", 
"available_spaces": 0, 
"city": "paris", 
"last_update": "2011-05-23 22:39:57.746460", 
"latitude": 48.8663393834, 
"longitude": 2.37128408416, 
"name": "11109 - REPUBLIQUE PIERRE LEVEE", 
"sid": "11109"
}, 
{
"address": "176 RUE DE LA ROQUETTE - 75011 PARIS", 
"available_bike": "40", 
"available_spaces": "12", 
"city": "paris", 
"last_update": "2011-05-23 22:41:31.492015", 
"latitude": 48.8593957753, 
"longitude": 2.38656210665, 
"name": "11110 - SQUARE ROQUETTE", 
"sid": "11110"
}, 
{
"address": "30-32 RUE LEON FROT - 75011 PARIS", 
"available_bike": "17", 
"available_spaces": 0, 
"city": "paris", 
"last_update": "2011-05-23 22:39:59.106621", 
"latitude": 48.8548658851, 
"longitude": 2.387102586, 
"name": "11111 - CHARONNE FROT", 
"sid": "11111"
}, 
{
"address": "22 RUE JULES VALLES - 75011 PARIS", 
"available_bike": "23", 
"available_spaces": 0, 
"city": "paris", 
"last_update": "2011-05-23 22:40:01.750248", 
"latitude": 48.8543365016, 
"longitude": 2.38496381432, 
"name": "11112 - CHARONNES VALLES", 
"sid": "11112"
}, 
{
"address": "FACE 140 BOULEVARD RICHARD LENOIR - 75011 PARIS", 
"available_bike": "19", 
"available_spaces": "37", 
"city": "paris", 
"last_update": "2011-05-23 22:41:33.404896", 
"latitude": 48.866402758, 
"longitude": 2.36962215921, 
"name": "11113 - REPUBLIQUE FERRY", 
"sid": "11113"
}, 
{
"address": "4 RUE DE VENTADOUR - 75001 PARIS", 
"available_bike": "11", 
"available_spaces": "16", 
"city": "paris", 
"last_update": "2011-05-23 22:39:56.717925", 
"latitude": 48.8666857278, 
"longitude": 2.33433941325, 
"name": "01116 - OP\u00c9RA PYRAMIDES", 
"sid": "1116"
}, 
{
"address": "48 BOULEVARD DE LA BASTILLE - 75012 PARIS", 
"available_bike": "34", 
"available_spaces": "27", 
"city": "paris", 
"last_update": "2011-05-23 22:39:39.661970", 
"latitude": 48.8516993741, 
"longitude": 2.36951765182, 
"name": "12001 - BASTILLE", 
"sid": "12001"
}, 
{
"address": "17 RUE LACUEE - 75012 PARIS", 
"available_bike": "2", 
"available_spaces": "13", 
"city": "paris", 
"last_update": "2011-05-23 22:40:20.641610", 
"latitude": 48.8491915831, 
"longitude": 2.37055107185, 
"name": "12002 - LACUEE", 
"sid": "12002"
}, 
{
"address": "FACE 98 QUAI DE LA RAPEE - 75012 PARIS", 
"available_bike": "23", 
"available_spaces": "40", 
"city": "paris", 
"last_update": "2011-05-23 22:40:18.371068", 
"latitude": 48.8458400979, 
"longitude": 2.36734886058, 
"name": "12003 - QUAI DE LA RAPEE", 
"sid": "12003"
}, 
{
"address": "76 RUE TRAVERSIERE - 75012 PARIS", 
"available_bike": "17", 
"available_spaces": "13", 
"city": "paris", 
"last_update": "2011-05-23 22:40:17.770473", 
"latitude": 48.8505380577, 
"longitude": 2.37599934032, 
"name": "12004 - TRAVERSIERE", 
"sid": "12004"
}, 
{
"address": "74 RUE CROZATIER - 75012 PARIS", 
"available_bike": "12", 
"available_spaces": "18", 
"city": "paris", 
"last_update": "2011-05-23 22:40:21.580053", 
"latitude": 48.8503484176, 
"longitude": 2.37868203545, 
"name": "12005 - CROZATIER", 
"sid": "12005"
}, 
{
"address": "15 RUE VAN GOGH - 75012 PARIS", 
"available_bike": "2", 
"available_spaces": "58", 
"city": "paris", 
"last_update": "2011-05-23 22:39:39.358359", 
"latitude": 48.8440322231, 
"longitude": 2.37239964536, 
"name": "12006 - GARE DE LYON VAN GOGH", 
"sid": "12006"
}, 
{
"address": "FACE 54 RUE DE CHALON - 75012 PARIS", 
"available_bike": 0, 
"available_spaces": "30", 
"city": "paris", 
"last_update": "2011-05-23 22:40:20.177577", 
"latitude": 48.8451731151, 
"longitude": 2.37412979026, 
"name": "12007 - GARE DE LYON CHALON", 
"sid": "12007"
}, 
{
"address": "15 BIS RUE HECTOR MALOT - 75012 PARIS", 
"available_bike": "12", 
"available_spaces": "40", 
"city": "paris", 
"last_update": "2011-05-23 22:39:39.262941", 
"latitude": 48.8464125623, 
"longitude": 2.37671798256, 
"name": "12008 - HECTOR MALOT", 
"sid": "12008"
}, 
{
"address": "FACE 124 RUE DE CHARENTON - 75012 PARIS", 
"available_bike": "17", 
"available_spaces": 0, 
"city": "paris", 
"last_update": "2011-05-23 22:39:39.214662", 
"latitude": 48.8462230254, 
"longitude": 2.37906002736, 
"name": "12009 - DIDEROT", 
"sid": "12009"
}, 
{
"address": "251 AVENUE DAUMESNIL - 75012 PARIS", 
"available_bike": "19", 
"available_spaces": 0, 
"city": "paris", 
"last_update": "2011-05-23 22:39:39.111447", 
"latitude": 48.8375398604, 
"longitude": 2.40185832354, 
"name": "12010 - MICHEL BIZOT", 
"sid": "12010"
}, 
{
"address": "160 RUE CHARENTON - 75012 PARIS", 
"available_bike": "35", 
"available_spaces": "1", 
"city": "paris", 
"last_update": "2011-05-23 22:39:39.062061", 
"latitude": 48.8447568223, 
"longitude": 2.38244947707, 
"name": "12011 - CHARENTON", 
"sid": "12011"
}, 
{
"address": "71 BOULEVARD DIDEROT - 75012 PARIS", 
"available_bike": "19", 
"available_spaces": "2", 
"city": "paris", 
"last_update": "2011-05-23 22:40:16.587133", 
"latitude": 48.8474337032, 
"longitude": 2.38599241041, 
"name": "12012 - REUILLY DIDEROT", 
"sid": "12012"
}, 
{
"address": "FACE 39 RUE MONTGALLET - 75012 PARIS", 
"available_bike": "14", 
"available_spaces": "1", 
"city": "paris", 
"last_update": "2011-05-23 22:40:16.154131", 
"latitude": 48.8441966323, 
"longitude": 2.38967953465, 
"name": "12013 - RUE MONTGALLET", 
"sid": "12013"
}, 
{
"address": "16 PLACE DE LA NATION SUR TPC - 75012 PARIS", 
"available_bike": "11", 
"available_spaces": "55", 
"city": "paris", 
"last_update": "2011-05-23 22:40:15.954934", 
"latitude": 48.847312716, 
"longitude": 2.3952523091, 
"name": "12014 - NATION", 
"sid": "12014"
}, 
{
"address": "FACE 67 BOULEVARD DE PICPUS - 75012 PARIS", 
"available_bike": "3", 
"available_spaces": "32", 
"city": "paris", 
"last_update": "2011-05-23 22:39:38.878510", 
"latitude": 48.8466900036, 
"longitude": 2.40031732387, 
"name": "12015 - NATION PICPUS", 
"sid": "12015"
}, 
{
"address": "43 AVENUE DE SAINT MANDE - 75012 PARIS", 
"available_bike": "14", 
"available_spaces": "20", 
"city": "paris", 
"last_update": "2011-05-23 22:40:15.372777", 
"latitude": 48.8451256247, 
"longitude": 2.40135032112, 
"name": "12016 - PICPUS", 
"sid": "12016"
}, 
{
"address": "82 AVENUE SAINT MANDE - 75012 PARIS", 
"available_bike": "34", 
"available_spaces": 0, 
"city": "paris", 
"last_update": "2011-05-23 22:39:38.791465", 
"latitude": 48.8447279441, 
"longitude": 2.40536684135, 
"name": "12017 - ST MANDE NETTER", 
"sid": "12017"
}, 
{
"address": "5 AVENUE SAINT MANDE - 75012 PARIS", 
"available_bike": "8", 
"available_spaces": "27", 
"city": "paris", 
"last_update": "2011-05-23 22:40:15.585244", 
"latitude": 48.8455687192, 
"longitude": 2.39610824335, 
"name": "12018 - SAINT MANDE - FAVRE", 
"sid": "12018"
}, 
{
"address": "58 RUE DE LA GARE DE REUILLY - 75012 PARIS", 
"available_bike": "22", 
"available_spaces": "5", 
"city": "paris", 
"last_update": "2011-05-23 22:39:38.687967", 
"latitude": 48.8424314688, 
"longitude": 2.39731654246, 
"name": "12019 - GARE DE REUILLY", 
"sid": "12019"
}, 
{
"address": "1 AVENUE COURTELINE - 75012 PARIS", 
"available_bike": "6", 
"available_spaces": "13", 
"city": "paris", 
"last_update": "2011-05-23 22:39:38.614825", 
"latitude": 48.8444731628, 
"longitude": 2.41063625574, 
"name": "12021 - COURTELINE", 
"sid": "12021"
}, 
{
"address": "FACE 29 RUE DU SAHEL - 75012 PARIS", 
"available_bike": "27", 
"available_spaces": "1", 
"city": "paris", 
"last_update": "2011-05-23 22:39:38.568105", 
"latitude": 48.8409986607, 
"longitude": 2.40440882448, 
"name": "12022 - BIZOT", 
"sid": "12022"
}, 
{
"address": "15 AVENUE EMILE LAURENT - 75012 PARIS", 
"available_bike": "46", 
"available_spaces": "21", 
"city": "paris", 
"last_update": "2011-05-23 22:40:08.816705", 
"latitude": 48.8407251859, 
"longitude": 2.41091688909, 
"name": "12023 - SAHEL", 
"sid": "12023"
}, 
{
"address": "FACE 14 PL. DU BATAILLON DU PACIFIQUE - 75012 PARIS", 
"available_bike": 0, 
"available_spaces": "20", 
"city": "paris", 
"last_update": "2011-05-23 22:40:03.288751", 
"latitude": 48.8401112109, 
"longitude": 2.37988566453, 
"name": "12025 - BERCY", 
"sid": "12025"
}, 
{
"address": "61 RUE DE BERCY - 75012 PARIS", 
"available_bike": "21", 
"available_spaces": "15", 
"city": "paris", 
"last_update": "2011-05-23 22:39:34.503292", 
"latitude": 48.8376028148, 
"longitude": 2.38223901841, 
"name": "12026 - PARC DE BERCY", 
"sid": "12026"
}, 
{
"address": "2 RUE MONTGALLET - 75012 PARIS", 
"available_bike": "15", 
"available_spaces": 0, 
"city": "paris", 
"last_update": "2011-05-23 22:39:34.351832", 
"latitude": 48.8426790666, 
"longitude": 2.38657345077, 
"name": "12027 - MONTGALLET CHARENTON", 
"sid": "12027"
}, 
{
"address": "42 ALLEE VIVALDI - 75012 PARIS", 
"available_bike": "18", 
"available_spaces": "9", 
"city": "paris", 
"last_update": "2011-05-23 22:40:25.434700", 
"latitude": 48.8418598745, 
"longitude": 2.38967717326, 
"name": "12028 - VIVALDI", 
"sid": "12028"
}, 
{
"address": "FACE 4 BOULEVARD DE REUILLY - 75012 PARIS", 
"available_bike": "52", 
"available_spaces": 0, 
"city": "paris", 
"last_update": "2011-05-23 22:40:14.527195", 
"latitude": 48.8387051304, 
"longitude": 2.38993267831, 
"name": "12029 - DUGOMMIER", 
"sid": "12029"
}, 
{
"address": "245 RUE DE CHARENTON - 75012 PARIS", 
"available_bike": "31", 
"available_spaces": "2", 
"city": "paris", 
"last_update": "2011-05-23 22:41:21.534838", 
"latitude": 48.8367269131, 
"longitude": 2.39204097726, 
"name": "12030 - WATTIGNIES", 
"sid": "12030"
}, 
{
"address": "49 RUE GABRIEL LAME - 75012 PARIS", 
"available_bike": "33", 
"available_spaces": "3", 
"city": "paris", 
"last_update": "2011-05-23 22:40:14.737876", 
"latitude": 48.8351838327, 
"longitude": 2.38561331248, 
"name": "12031 - LAME", 
"sid": "12031"
}, 
{
"address": "FACE 28 RUE FRANCOIS TRUFFAUT - 75012 PARIS", 
"available_bike": "11", 
"available_spaces": "53", 
"city": "paris", 
"last_update": "2011-05-23 22:40:14.086718", 
"latitude": 48.8333412707, 
"longitude": 2.38587026116, 
"name": "12033 - SAINT EMILION", 
"sid": "12033"
}, 
{
"address": "20 RUE DES PIROGUES DE BERCY - 75012 PARIS", 
"available_bike": "11", 
"available_spaces": "37", 
"city": "paris", 
"last_update": "2011-05-23 22:39:38.317443", 
"latitude": 48.8322984963, 
"longitude": 2.38638660567, 
"name": "12034 - PIROGUES DE BERCY", 
"sid": "12034"
}, 
{
"address": "4 RUE DE MADAGASCAR - 75012 PARIS", 
"available_bike": "31", 
"available_spaces": "1", 
"city": "paris", 
"last_update": "2011-05-23 22:40:13.974039", 
"latitude": 48.8346122901, 
"longitude": 2.3973074911, 
"name": "12035 - MADAGASCAR", 
"sid": "12035"
}, 
{
"address": "116 RUE DE REUILLY - 75012 PARIS", 
"available_bike": "42", 
"available_spaces": 0, 
"city": "paris", 
"last_update": "2011-05-23 22:39:38.225569", 
"latitude": 48.8401049723, 
"longitude": 2.39472685199, 
"name": "12036 - REUILLY", 
"sid": "12036"
}, 
{
"address": "53 BOULEVARD DE REUILLY - 75012 PARIS", 
"available_bike": "38", 
"available_spaces": "2", 
"city": "paris", 
"last_update": "2011-05-23 22:40:01.790295", 
"latitude": 48.8397262595, 
"longitude": 2.39723171659, 
"name": "12037 - DAUMESNIL", 
"sid": "12037"
}, 
{
"address": "FACE 12 BOULEVARD PICPUS - 75012 PARIS", 
"available_bike": "36", 
"available_spaces": "3", 
"city": "paris", 
"last_update": "2011-05-23 22:40:11.583810", 
"latitude": 48.8399311083, 
"longitude": 2.40082650582, 
"name": "12038 - BEL AIR", 
"sid": "12038"
}, 
{
"address": "45 AVENUE DU GENERAL MICHEL BIZOT - 75012 PARIS", 
"available_bike": "21", 
"available_spaces": "17", 
"city": "paris", 
"last_update": "2011-05-23 22:39:38.125260", 
"latitude": 48.8347451274, 
"longitude": 2.40110605351, 
"name": "12039 - DECAEN", 
"sid": "12039"
}, 
{
"address": "FACE 2 AV. DE LA PORTE DE CHARENTON - 75012 PARIS", 
"available_bike": "64", 
"available_spaces": "3", 
"city": "paris", 
"last_update": "2011-05-23 22:39:38.040162", 
"latitude": 48.8314748946, 
"longitude": 2.3987196651, 
"name": "12040 - PORTE DE CHARENTON", 
"sid": "12040"
}, 
{
"address": "AVENUE DAUMESNIL - 75012 PARIS", 
"available_bike": "57", 
"available_spaces": "1", 
"city": "paris", 
"last_update": "2011-05-23 22:40:09.762805", 
"latitude": 48.8336146416, 
"longitude": 2.41309866026, 
"name": "12041 - BOIS DE VINCENNES", 
"sid": "12041"
}, 
{
"address": "89 TER RUE DE CHARENTON - 75012 PARIS", 
"available_bike": "7", 
"available_spaces": "9", 
"city": "paris", 
"last_update": "2011-05-23 22:40:03.404681", 
"latitude": 48.8481203487, 
"longitude": 2.37622903831, 
"name": "12101 - CHARENTON PRAGUE", 
"sid": "12101"
}, 
{
"address": "224 RUE DE BERCY - 75012 PARIS", 
"available_bike": "29", 
"available_spaces": 0, 
"city": "paris", 
"last_update": "2011-05-23 22:41:51.471525", 
"latitude": 48.8461808171, 
"longitude": 2.37038573088, 
"name": "12102 - DIDEROT BERCY", 
"sid": "12102"
}, 
{
"address": "153 RUE DE BERCY - 75012 PARIS", 
"available_bike": "2", 
"available_spaces": "13", 
"city": "paris", 
"last_update": "2011-05-23 22:39:57.954755", 
"latitude": 48.8418649882, 
"longitude": 2.37637411735, 
"name": "12105 - BERCY VILLOT", 
"sid": "12105"
}, 
{
"address": "3 RUE ROLAND BARTHES - 75012 PARIS", 
"available_bike": "38", 
"available_spaces": "31", 
"city": "paris", 
"last_update": "2011-05-23 22:41:30.026035", 
"latitude": 48.844218905, 
"longitude": 2.37878607523, 
"name": "12106 - BARTHES TROYES", 
"sid": "12106"
}, 
{
"address": "146 BOULEVARD DIDEROT - 75012 PARIS", 
"available_bike": "19", 
"available_spaces": "2", 
"city": "paris", 
"last_update": "2011-05-23 22:40:06.347600", 
"latitude": 48.8474139136, 
"longitude": 2.39024111157, 
"name": "12107 - DIDEROT BOURDAN", 
"sid": "12107"
}, 
{
"address": "81 RUE DE BERCY - 75012 PARIS", 
"available_bike": "29", 
"available_spaces": "15", 
"city": "paris", 
"last_update": "2011-05-23 22:39:58.938135", 
"latitude": 48.8388256254, 
"longitude": 2.38089215045, 
"name": "12108 - PALAIS OMNISPORT", 
"sid": "12108"
}, 
{
"address": "212 RUE DE CHARENTON - 75012 PARIS", 
"available_bike": "14", 
"available_spaces": "16", 
"city": "paris", 
"last_update": "2011-05-23 22:40:07.441445", 
"latitude": 48.8407823718, 
"longitude": 2.38734775686, 
"name": "12109 - CHAROLAIS", 
"sid": "12109"
}, 
{
"address": "57-61 RUE DES PIROGUES DE BERCY - 75012 PARIS", 
"available_bike": "32", 
"available_spaces": "22", 
"city": "paris", 
"last_update": "2011-05-23 22:41:34.011543", 
"latitude": 48.8339153516, 
"longitude": 2.38855278637, 
"name": "12110 - BARON LE ROY TRUFFAUT", 
"sid": "12110"
}, 
{
"address": "73 RUE CLAUDE DECAEN - 75012 PARIS", 
"available_bike": "24", 
"available_spaces": 0, 
"city": "paris", 
"last_update": "2011-05-23 22:39:59.399564", 
"latitude": 48.8374613941, 
"longitude": 2.39722909837, 
"name": "12111 - DECAEN CANNEBIERE", 
"sid": "12111"
}, 
{
"address": "311-313 RUE DE CHARENTON - 75012 PARIS", 
"available_bike": "31", 
"available_spaces": 0, 
"city": "paris", 
"last_update": "2011-05-23 22:41:44.946347", 
"latitude": 48.8338136183, 
"longitude": 2.39482879631, 
"name": "12112 - CHARENTON JARDINIER", 
"sid": "12112"
}, 
{
"address": "4 PLACE DU CARDINAL LAVIGERIE - 75012 PARIS", 
"available_bike": "30", 
"available_spaces": 0, 
"city": "paris", 
"last_update": "2011-05-23 22:40:07.569488", 
"latitude": 48.8322900599, 
"longitude": 2.40375770864, 
"name": "12113 - CARDINAL LAVIGERIE", 
"sid": "12113"
}, 
{
"address": "33 AVENUE COURTELINE - 75012 PARIS", 
"available_bike": "19", 
"available_spaces": "8", 
"city": "paris", 
"last_update": "2011-05-23 22:40:04.386148", 
"latitude": 48.8439762087, 
"longitude": 2.4148022913, 
"name": "12114 - PORTE DE SAINT MANDE", 
"sid": "12114"
}, 
{
"address": "22 AVENUE DE LA PORTE DE VINCENNES - 75012 PARIS", 
"available_bike": "14", 
"available_spaces": "18", 
"city": "paris", 
"last_update": "2011-05-23 22:40:01.914684", 
"latitude": 48.8463125254, 
"longitude": 2.41547303683, 
"name": "12115 - PORTE DE VINCENNES", 
"sid": "12115"
}, 
{
"address": "ROUTE DOM PERIGNON - 75012 PARIS", 
"available_bike": "49", 
"available_spaces": 0, 
"city": "paris", 
"last_update": "2011-05-23 22:40:09.171840", 
"latitude": 48.8252940617, 
"longitude": 2.40994215321, 
"name": "12119 - DOM P\u00c9RIGNON GRAVELLE", 
"sid": "12119"
}, 
{
"address": "ROUTE DE LA CEINTURE DU LAC DAUMESNIL - 75012 PARIS", 
"available_bike": "25", 
"available_spaces": "25", 
"city": "paris", 
"last_update": "2011-05-23 22:40:08.875561", 
"latitude": 48.827786961, 
"longitude": 2.41869851141, 
"name": "12120 - CONSERVATION", 
"sid": "12120"
}, 
{
"address": "COURS DES MARECHAUX - 94300 VINCENNES", 
"available_bike": "1", 
"available_spaces": "50", 
"city": "paris", 
"last_update": "2011-05-23 22:40:09.213086", 
"latitude": 48.8442279085, 
"longitude": 2.4386594085, 
"name": "12123 - CHATEAU DE VINCENNES", 
"sid": "12123"
}, 
{
"address": "ROUTE DE L'ARTILLERIE - 75012 PARIS", 
"available_bike": "44", 
"available_spaces": "10", 
"city": "paris", 
"last_update": "2011-05-23 22:40:08.940411", 
"latitude": 48.8393749069, 
"longitude": 2.43833676447, 
"name": "12124 - PYRAMIDE ARTILLERIE", 
"sid": "12124"
}, 
{
"address": "PYRAMIDE ENTREE PARC FLORAL - 75012 PARIS", 
"available_bike": "25", 
"available_spaces": "22", 
"city": "paris", 
"last_update": "2011-05-23 22:40:08.993138", 
"latitude": 48.8369193275, 
"longitude": 2.44063290626, 
"name": "12125 - PYRAMIDE ENTR\u00c9E PARC FLORAL", 
"sid": "12125"
}, 
{
"address": "FACE 71 AVENUE DE GRAVELLE - 75012 PARIS", 
"available_bike": "48", 
"available_spaces": 0, 
"city": "paris", 
"last_update": "2011-05-23 22:40:09.267024", 
"latitude": 48.8247154202, 
"longitude": 2.41535881484, 
"name": "12126 - AVENUE DE GRAVELLE", 
"sid": "12126"
}, 
{
"address": "GARE DE LYON  ", 
"available_bike": "11", 
"available_spaces": "49", 
"city": "paris", 
"last_update": "2011-05-23 22:40:22.766308", 
"latitude": 48.8447959963, 
"longitude": 2.37295845993, 
"name": "12151 - GARE DE LYON", 
"sid": "12151"
}, 
{
"address": "51 BOULEVARD PORT ROYAL - 75013 PARIS", 
"available_bike": "18", 
"available_spaces": 0, 
"city": "paris", 
"last_update": "2011-05-23 22:39:55.677692", 
"latitude": 48.8374402173, 
"longitude": 2.34614532205, 
"name": "13001 - PORT ROYAL", 
"sid": "13001"
}, 
{
"address": "55 BD ARAGO - 75013 PARIS", 
"available_bike": "22", 
"available_spaces": 0, 
"city": "paris", 
"last_update": "2011-05-23 22:39:42.851362", 
"latitude": 48.8348518962, 
"longitude": 2.34464729536, 
"name": "13002 - ARAGO", 
"sid": "13002"
}, 
{
"address": "88 BOULEVARD AUGUSTE BLANQUI (SUR TPC) - 75013 PARIS", 
"available_bike": "63", 
"available_spaces": "2", 
"city": "paris", 
"last_update": "2011-05-23 22:39:55.376206", 
"latitude": 48.8306905085, 
"longitude": 2.34645727126, 
"name": "13004 - GLACIERE", 
"sid": "13004"
}, 
{
"address": "2 RUE DES CORDELIERES - 75013 PARIS", 
"available_bike": "46", 
"available_spaces": 0, 
"city": "paris", 
"last_update": "2011-05-23 22:39:54.526514", 
"latitude": 48.8354807462, 
"longitude": 2.34828247165, 
"name": "13005 - ARAGO CORDELIERE - VERSION 2", 
"sid": "13005"
}, 
{
"address": "02 RUE DUMERIL - 75013 PARIS", 
"available_bike": "40", 
"available_spaces": 0, 
"city": "paris", 
"last_update": "2011-05-23 22:39:54.638338", 
"latitude": 48.8379691632, 
"longitude": 2.35709204148, 
"name": "13006 - SAINT MARCEL JEANNE D'ARC", 
"sid": "13006"
}, 
{
"address": "42 RUE LE BRUN - 75013 PARIS", 
"available_bike": "46", 
"available_spaces": 0, 
"city": "paris", 
"last_update": "2011-05-23 22:39:42.645359", 
"latitude": 48.8350667366, 
"longitude": 2.3533741873, 
"name": "13007 - LE BRUN GOBELINS", 
"sid": "13007"
}, 
{
"address": "FACE 2 PLACE D'ITALIE - 75013 PARIS", 
"available_bike": "21", 
"available_spaces": "26", 
"city": "paris", 
"last_update": "2011-05-23 22:39:42.601998", 
"latitude": 48.8318129824, 
"longitude": 2.35507487575, 
"name": "13008 - ITALIE ROSALIE", 
"sid": "13008"
}, 
{
"address": "46 BOULEVARD AUGUSTE BLANQUI - 75013 PARIS", 
"available_bike": "13", 
"available_spaces": "12", 
"city": "paris", 
"last_update": "2011-05-23 22:39:42.552794", 
"latitude": 48.8298543419, 
"longitude": 2.34991484544, 
"name": "13009 - BLANQUI CORVISART", 
"sid": "13009"
}, 
{
"address": "FACE 11 PLACE D'ITALIE - 75013 PARIS", 
"available_bike": "18", 
"available_spaces": "22", 
"city": "paris", 
"last_update": "2011-05-23 22:39:42.499088", 
"latitude": 48.8314892538, 
"longitude": 2.35620468588, 
"name": "13010 - PLACE D ITALIE AURIOL", 
"sid": "13010"
}, 
{
"address": "112 BD DE L'HOPITAL - 75013 PARIS", 
"available_bike": "9", 
"available_spaces": "4", 
"city": "paris", 
"last_update": "2011-05-23 22:39:53.609247", 
"latitude": 48.8356141738, 
"longitude": 2.35850705862, 
"name": "13011 - COMPO FORMIO", 
"sid": "13011"
}, 
{
"address": "3 BD SAINT MARCEL - 75013 PARIS", 
"available_bike": "18", 
"available_spaces": 0, 
"city": "paris", 
"last_update": "2011-05-23 22:39:42.405560", 
"latitude": 48.8396850122, 
"longitude": 2.36129993671, 
"name": "13013 - SAINT MARCEL", 
"sid": "13013"
}, 
{
"address": "5 BIS BOULEVARD DE L'HOPITAL - 75013 PARIS", 
"available_bike": 0, 
"available_spaces": "11", 
"city": "paris", 
"last_update": "2011-05-23 22:39:49.854632", 
"latitude": 48.8423448958, 
"longitude": 2.36334362343, 
"name": "13014 - GARE D'AUSTERLITZ", 
"sid": "13014"
}, 
{
"address": "2 RUE LOUIS WEISS - 75013 PARIS", 
"available_bike": "41", 
"available_spaces": 0, 
"city": "paris", 
"last_update": "2011-05-23 22:39:42.152286", 
"latitude": 48.8326632663, 
"longitude": 2.37131645296, 
"name": "13015 - WEISS", 
"sid": "13015"
}, 
{
"address": "9 RUE PRIMO LEVI - 75013 PARIS", 
"available_bike": "31", 
"available_spaces": "31", 
"city": "paris", 
"last_update": "2011-05-23 22:39:42.109362", 
"latitude": 48.8308001939, 
"longitude": 2.37953768148, 
"name": "13016 - PRIMO LEVI", 
"sid": "13016"
}, 
{
"address": "167 RUE NATIONALE - 75013 PARIS", 
"available_bike": "27", 
"available_spaces": "5", 
"city": "paris", 
"last_update": "2011-05-23 22:40:29.866044", 
"latitude": 48.8325936314, 
"longitude": 2.36216793353, 
"name": "13017 - NATIONALE", 
"sid": "13017"
}, 
{
"address": "20 RUE FERNAND BRAUDEL - 75013 PARIS", 
"available_bike": "22", 
"available_spaces": "14", 
"city": "paris", 
"last_update": "2011-05-23 22:39:42.024298", 
"latitude": 48.8364287227, 
"longitude": 2.37250341324, 
"name": "13019 - AURIOL QUAI DE LA GARE", 
"sid": "13019"
}, 
{
"address": "FACE 15 RUE PAUL KLEE - 75013 PARIS", 
"available_bike": "11", 
"available_spaces": "33", 
"city": "paris", 
"last_update": "2011-05-23 22:40:29.932275", 
"latitude": 48.8389187865, 
"longitude": 2.37074871069, 
"name": "13020 - MENDES FRANCE", 
"sid": "13020"
}, 
{
"address": "55 RUE BOUSSINGAULT - 75013 PARIS", 
"available_bike": "46", 
"available_spaces": "1", 
"city": "paris", 
"last_update": "2011-05-23 22:40:29.278391", 
"latitude": 48.8262778471, 
"longitude": 2.34181474804, 
"name": "13021 - BOUSSINGAULT - TOLBIAC", 
"sid": "13021"
}, 
{
"address": "27 ET 36 RUE DE LA BUTTE AUX CAILLES - 75013 PARIS", 
"available_bike": "6", 
"available_spaces": "29", 
"city": "paris", 
"last_update": "2011-05-23 22:40:29.325222", 
"latitude": 48.8275715625, 
"longitude": 2.34913837698, 
"name": "13022 - BUTTE AUX CAILLES", 
"sid": "13022"
}, 
{
"address": "30 RUE BOBILLOT - 75013 PARIS", 
"available_bike": "11", 
"available_spaces": "15", 
"city": "paris", 
"last_update": "2011-05-23 22:40:57.883886", 
"latitude": 48.8285597542, 
"longitude": 2.3530046218, 
"name": "13023 - BOBILLOT VERLAINE", 
"sid": "13023"
}, 
{
"address": "81 RUE BOBILLOT - 75013 PARIS", 
"available_bike": "19", 
"available_spaces": "14", 
"city": "paris", 
"last_update": "2011-05-23 22:39:41.808359", 
"latitude": 48.8256930165, 
"longitude": 2.35034941378, 
"name": "13024 - BOBILLOT TOLBIAC", 
"sid": "13024"
}, 
{
"address": "FACE 35 RUE DE LA FONTAINE A MULARD - 75013 PARIS", 
"available_bike": "29", 
"available_spaces": 0, 
"city": "paris", 
"last_update": "2011-05-23 22:39:41.748012", 
"latitude": 48.8224397871, 
"longitude": 2.34717719818, 
"name": "13025 - PLACE DE RUNGIS", 
"sid": "13025"
}, 
{
"address": "21 RUE DU DR LERAY ET LANDOUZY - 75013 PARIS", 
"available_bike": "34", 
"available_spaces": 0, 
"city": "paris", 
"last_update": "2011-05-23 22:39:41.695170", 
"latitude": 48.8234636564, 
"longitude": 2.35372447952, 
"name": "13026 - PLACE HENOCQUE VERSION 2", 
"sid": "13026"
}, 
{
"address": "AVENUE DE LA PORTE DE GENTILLY - 75013 PARIS", 
"available_bike": "10", 
"available_spaces": "5", 
"city": "paris", 
"last_update": "2011-05-23 22:39:49.216695", 
"latitude": 48.8162564644, 
"longitude": 2.34410026566, 
"name": "13027 - MAZAGRAND COUBERTIN", 
"sid": "13027"
}, 
{
"address": "12 RUE GOUTHIERE - 75013 PARIS", 
"available_bike": "30", 
"available_spaces": "2", 
"city": "paris", 
"last_update": "2011-05-23 22:40:56.732550", 
"latitude": 48.8207856646, 
"longitude": 2.35106954268, 
"name": "13028 - GOUTHIERE", 
"sid": "13028"
}, 
{
"address": "30 AVENUE D'ITALIE - 75013 PARIS", 
"available_bike": 0, 
"available_spaces": "19", 
"city": "paris", 
"last_update": "2011-05-23 22:39:41.611870", 
"latitude": 48.8298715101, 
"longitude": 2.35602712494, 
"name": "13029 - ITALIE", 
"sid": "13029"
}, 
{
"address": "88 AVENUE D'ITALIE - 75013 PARIS", 
"available_bike": "18", 
"available_spaces": "21", 
"city": "paris", 
"last_update": "2011-05-23 22:40:28.142797", 
"latitude": 48.8257819223, 
"longitude": 2.35731878667, 
"name": "13030 - ITALIE TOLBIAC", 
"sid": "13030"
}, 
{
"address": "121 AVENUE D'ITALIE - 75013 PARIS", 
"available_bike": "16", 
"available_spaces": "15", 
"city": "paris", 
"last_update": "2011-05-23 22:41:14.477311", 
"latitude": 48.8219799007, 
"longitude": 2.35867841827, 
"name": "13031 - ITALIE MAISON BLANCHE", 
"sid": "13031"
}, 
{
"address": "163 AVENUE D'ITALIE - 75013 PARIS", 
"available_bike": "20", 
"available_spaces": "4", 
"city": "paris", 
"last_update": "2011-05-23 22:40:27.789668", 
"latitude": 48.8192025409, 
"longitude": 2.35956194044, 
"name": "13032 - MASSENA", 
"sid": "13032"
}, 
{
"address": "15 AVENUE DE LA PORTE D'ITALIE - 75013 PARIS", 
"available_bike": "13", 
"available_spaces": "1", 
"city": "paris", 
"last_update": "2011-05-23 22:39:41.347779", 
"latitude": 48.8164071637, 
"longitude": 2.36059506512, 
"name": "13033 - PORTE D'ITALIE", 
"sid": "13033"
}, 
{
"address": "54 AVENUE EDISON - 75013 PARIS", 
"available_bike": "13", 
"available_spaces": "5", 
"city": "paris", 
"last_update": "2011-05-23 22:39:53.856575", 
"latitude": 48.8291516665, 
"longitude": 2.36072331388, 
"name": "13034 - EDISON", 
"sid": "13034"
}, 
{
"address": "116 AVENUE DE CHOISY - 75013 PARIS", 
"available_bike": "14", 
"available_spaces": "8", 
"city": "paris", 
"last_update": "2011-05-23 22:40:55.044890", 
"latitude": 48.8259701364, 
"longitude": 2.36023184076, 
"name": "13035 - IVRY TOLBIAC", 
"sid": "13035"
}, 
{
"address": "86 RUE TOLBIAC - 75013 PARIS", 
"available_bike": "28", 
"available_spaces": "7", 
"city": "paris", 
"last_update": "2011-05-23 22:41:13.230595", 
"latitude": 48.8271731181, 
"longitude": 2.36645323017, 
"name": "13036 - TOLBIAC NATIONALE", 
"sid": "13036"
}, 
{
"address": "76 AVENUE D'IVRY - 75013 PARIS", 
"available_bike": "2", 
"available_spaces": "18", 
"city": "paris", 
"last_update": "2011-05-23 22:39:53.714798", 
"latitude": 48.8246213777, 
"longitude": 2.36319859602, 
"name": "13037 - IVRY BAUDICOURT", 
"sid": "13037"
}, 
{
"address": "28 AVENUE DE CHOISY - 75013 PARIS", 
"available_bike": "19", 
"available_spaces": "3", 
"city": "paris", 
"last_update": "2011-05-23 22:41:12.622527", 
"latitude": 48.8218980827, 
"longitude": 2.36333334455, 
"name": "13038 - CHOISY POINT D'IVRY", 
"sid": "13038"
}, 
{
"address": "2 RUE DE LA POINTE D'IVRY - 75013 PARIS", 
"available_bike": "4", 
"available_spaces": "13", 
"city": "paris", 
"last_update": "2011-05-23 22:40:26.086785", 
"latitude": 48.8232187905, 
"longitude": 2.36544376607, 
"name": "13039 - IVRY POINTE D'IVRY", 
"sid": "13039"
}, 
{
"address": "111 BOULEVARD MASSENA - 75013 PARIS", 
"available_bike": "31", 
"available_spaces": "13", 
"city": "paris", 
"last_update": "2011-05-23 22:40:26.519546", 
"latitude": 48.8200192957, 
"longitude": 2.36492482918, 
"name": "13040 - PORTE DE CHOISY", 
"sid": "13040"
}, 
{
"address": "4 AVENUE D'IVRY - 75013 PARIS", 
"available_bike": "43", 
"available_spaces": "7", 
"city": "paris", 
"last_update": "2011-05-23 22:41:15.243954", 
"latitude": 48.8214652984, 
"longitude": 2.36899525362, 
"name": "13041 - PORTE D'IVRY", 
"sid": "13041"
}, 
{
"address": "150 RUE NATIONALE - 75013 PARIS", 
"available_bike": "30", 
"available_spaces": "6", 
"city": "paris", 
"last_update": "2011-05-23 22:40:25.875288", 
"latitude": 48.8311281996, 
"longitude": 2.36423646906, 
"name": "13042 - NATIONALE BACH", 
"sid": "13042"
}, 
{
"address": "55 RUE DUNOIS - 75013 PARIS", 
"available_bike": "51", 
"available_spaces": 0, 
"city": "paris", 
"last_update": "2011-05-23 22:40:25.384166", 
"latitude": 48.8322239204, 
"longitude": 2.36743625909, 
"name": "13043 - DUNOIS CLISSON", 
"sid": "13043"
}, 
{
"address": "20 PLACE JEANNE D'ARC - 75013 PARIS", 
"available_bike": "36", 
"available_spaces": 0, 
"city": "paris", 
"last_update": "2011-05-23 22:40:41.632580", 
"latitude": 48.8294733053, 
"longitude": 2.36898653909, 
"name": "13044 - PLACE JEANNE D'ARC", 
"sid": "13044"
}, 
{
"address": "FACE 1 RUE JEAN COLLY - 75013 PARIS", 
"available_bike": "18", 
"available_spaces": 0, 
"city": "paris", 
"last_update": "2011-05-23 22:39:40.805376", 
"latitude": 48.827774119, 
"longitude": 2.37089125508, 
"name": "13045 - TOLBIAC ALBERT", 
"sid": "13045"
}, 
{
"address": "10 RUE EUGENE DUDINE - 75013 PARIS", 
"available_bike": "44", 
"available_spaces": 0, 
"city": "paris", 
"last_update": "2011-05-23 22:40:24.713475", 
"latitude": 48.8257057358, 
"longitude": 2.37497351251, 
"name": "13046 - OUDINE PATAY", 
"sid": "13046"
}, 
{
"address": "1 AVENUE BOUTROUX - 75013 PARIS", 
"available_bike": "49", 
"available_spaces": 0, 
"city": "paris", 
"last_update": "2011-05-23 22:39:40.698205", 
"latitude": 48.8227389167, 
"longitude": 2.37767998818, 
"name": "13047 - BOUTROUX VITRY", 
"sid": "13047"
}, 
{
"address": "20 RUE WURTZ - 75013 PARIS", 
"available_bike": "10", 
"available_spaces": "15", 
"city": "paris", 
"last_update": "2011-05-23 22:40:54.428756", 
"latitude": 48.8263586349, 
"longitude": 2.34395186483, 
"name": "13048 - TOLBIAC WURTZ", 
"sid": "13048"
}, 
{
"address": "23 QUAI PANHARD ET LEVASSOR - 75013 PARIS", 
"available_bike": "16", 
"available_spaces": "42", 
"city": "paris", 
"last_update": "2011-05-23 22:40:24.296724", 
"latitude": 48.828263879, 
"longitude": 2.38434088574, 
"name": "13050 - QUAI PANHARD ET LEVASSOR", 
"sid": "13050"
}, 
{
"address": "9 QUAI FRANCOIS MAURIAC - 75013 PARIS", 
"available_bike": "4", 
"available_spaces": "15", 
"city": "paris", 
"last_update": "2011-05-23 22:39:40.505202", 
"latitude": 48.8327597284, 
"longitude": 2.37887219992, 
"name": "13051 - QUAI FRANCOIS MAURIAC TOLBIAC", 
"sid": "13051"
}, 
{
"address": "2 RUE LEREDDE - 75013 PARIS", 
"available_bike": "37", 
"available_spaces": "5", 
"city": "paris", 
"last_update": "2011-05-23 22:40:23.951016", 
"latitude": 48.8290313269, 
"longitude": 2.37445864094, 
"name": "13052 - TOLBIAC LERREDE", 
"sid": "13052"
}, 
{
"address": "56 RUE CHEVALERET - 75013 PARIS", 
"available_bike": "17", 
"available_spaces": "4", 
"city": "paris", 
"last_update": "2011-05-23 22:40:24.008634", 
"latitude": 48.8303074889, 
"longitude": 2.37471820676, 
"name": "13053 - CHEVALERET TOLBIAC", 
"sid": "13053"
}, 
{
"address": "1 RUE PAU CASALS - 75013 PARIS", 
"available_bike": "2", 
"available_spaces": "26", 
"city": "paris", 
"last_update": "2011-05-23 22:39:38.934945", 
"latitude": 48.8311604569, 
"longitude": 2.37734621361, 
"name": "13054 - PAU CASALS", 
"sid": "13054"
}, 
{
"address": "18 RUE MARIE ANDREE LAGROUA - 75013 PARIS", 
"available_bike": "11", 
"available_spaces": "48", 
"city": "paris", 
"last_update": "2011-05-23 22:39:39.726391", 
"latitude": 48.8284990832, 
"longitude": 2.38031173188, 
"name": "13055 - LAGROUA", 
"sid": "13055"
}, 
{
"address": "67-69 RUE DE CROULEBARBE - 75013 PARIS", 
"available_bike": "34", 
"available_spaces": 0, 
"city": "paris", 
"last_update": "2011-05-23 22:41:42.853989", 
"latitude": 48.830932982, 
"longitude": 2.34867629255, 
"name": "13101 - CROULEBARBE RECULETTES", 
"sid": "13101"
}, 
{
"address": "89 BOULEVARD DE L'HOPITAL - 75013 PARIS", 
"available_bike": "4", 
"available_spaces": "46", 
"city": "paris", 
"last_update": "2011-05-23 22:40:05.505125", 
"latitude": 48.8385257096, 
"longitude": 2.36083647727, 
"name": "13103 - SAINT MARCEL", 
"sid": "13103"
}, 
{
"address": "FACE 109 QUAI D'AUSTERLITZ - 75013 PARIS", 
"available_bike": "5", 
"available_spaces": "18", 
"city": "paris", 
"last_update": "2011-05-23 22:40:08.017826", 
"latitude": 48.8440970503, 
"longitude": 2.36516915835, 
"name": "13104 - GARE D'AUSTERLITZ", 
"sid": "13104"
}, 
{
"address": "17 RUE BOBILLOT - 75013 PARIS", 
"available_bike": "1", 
"available_spaces": "22", 
"city": "paris", 
"last_update": "2011-05-23 22:41:32.158860", 
"latitude": 48.8298717702, 
"longitude": 2.35429826318, 
"name": "13106 - BOBILLOT MERY", 
"sid": "13106"
}, 
{
"address": "12 PASSAGE VICTOR MARCHAND - 75013 PARIS", 
"available_bike": "36", 
"available_spaces": "1", 
"city": "paris", 
"last_update": "2011-05-23 22:39:58.008984", 
"latitude": 48.8289022342, 
"longitude": 2.34193749423, 
"name": "13107 - MARCHAND SANTE", 
"sid": "13107"
}, 
{
"address": "16 RUE BRILLAT SAVARIN - 75013 PARIS", 
"available_bike": "21", 
"available_spaces": 0, 
"city": "paris", 
"last_update": "2011-05-23 22:39:58.059777", 
"latitude": 48.8222237761, 
"longitude": 2.35034853833, 
"name": "13109 - BRILLAT SAVARIN", 
"sid": "13109"
}, 
{
"address": "66 RUE DU MOULIN DE LA POINTE - 75013 PARIS", 
"available_bike": "14", 
"available_spaces": "8", 
"city": "paris", 
"last_update": "2011-05-23 22:41:40.459443", 
"latitude": 48.8209377361, 
"longitude": 2.3562824974, 
"name": "13110 - MOULIN DE LA POINTE", 
"sid": "13110"
}, 
{
"address": "RUE DE LA POTERNE DES PEUPLIERS - 75013 PARIS", 
"available_bike": "44", 
"available_spaces": "10", 
"city": "paris", 
"last_update": "2011-05-23 22:41:45.595984", 
"latitude": 48.8185744158, 
"longitude": 2.35326018374, 
"name": "13111 - CIMETIERE DE GENTILLY", 
"sid": "13111"
}, 
{
"address": "2 RUE DE LA VISCULE - 75013 PARIS", 
"available_bike": "20", 
"available_spaces": "12", 
"city": "paris", 
"last_update": "2011-05-23 22:39:58.305540", 
"latitude": 48.8236330762, 
"longitude": 2.36157833946, 
"name": "13113 - CHOISY VISTULE", 
"sid": "13113"
}, 
{
"address": "46 RUE NATIONALE - 75013 PARIS", 
"available_bike": "8", 
"available_spaces": "13", 
"city": "paris", 
"last_update": "2011-05-23 22:40:02.001925", 
"latitude": 48.8248090269, 
"longitude": 2.36779946405, 
"name": "13114 - NATIONALE DUCHAMP (PROP 1)", 
"sid": "13114"
}, 
{
"address": "FACE 5 AVENUE DE LA PORTE D'IVRY - 75013 PARIS", 
"available_bike": "1", 
"available_spaces": "17", 
"city": "paris", 
"last_update": "2011-05-23 22:41:45.874920", 
"latitude": 48.8201342441, 
"longitude": 2.37212486201, 
"name": "13116 - PLACE DU DOCTEUR YERSIN", 
"sid": "13116"
}, 
{
"address": "95-97 BOULEVARD MASSENA - 75013 PARIS", 
"available_bike": "44", 
"available_spaces": "21", 
"city": "paris", 
"last_update": "2011-05-23 22:40:02.089049", 
"latitude": 48.820387477, 
"longitude": 2.36624525352, 
"name": "13117 - STADE GEORGES CARPENTIER", 
"sid": "13117"
}, 
{
"address": "36-38 RUE REGNAULT - 75013 PARIS", 
"available_bike": "17", 
"available_spaces": "1", 
"city": "paris", 
"last_update": "2011-05-23 22:40:00.587013", 
"latitude": 48.824393174, 
"longitude": 2.37610232543, 
"name": "13118 - PATAY REGNAULT", 
"sid": "13118"
}, 
{
"address": "RUE PIERRE ET JOSEPH DESAULT - 75013 PARIS", 
"available_bike": "15", 
"available_spaces": "3", 
"city": "paris", 
"last_update": "2011-05-23 22:41:52.157232", 
"latitude": 48.8211566955, 
"longitude": 2.37880845223, 
"name": "13120 - VITRY DESAULT", 
"sid": "13120"
}, 
{
"address": "RUE BRUNESEAU - 75013 PARIS", 
"available_bike": "4", 
"available_spaces": "42", 
"city": "paris", 
"last_update": "2011-05-23 22:40:10.324854", 
"latitude": 48.8249276763, 
"longitude": 2.38865279643, 
"name": "13121 - IVRY BRUNESEAU", 
"sid": "13121"
}, 
{
"address": "FACE 153 AVENUE DE CHOISY - 75013 PARIS", 
"available_bike": "18", 
"available_spaces": "7", 
"city": "paris", 
"last_update": "2011-05-23 22:39:58.725937", 
"latitude": 48.8282533416, 
"longitude": 2.35838152987, 
"name": "13122 - PARC DE CHOISY", 
"sid": "13122"
}, 
{
"address": "53 QUAI FRANCOIS MAURIAC - 75013 PARIS", 
"available_bike": "3", 
"available_spaces": "26", 
"city": "paris", 
"last_update": "2011-05-23 22:40:22.364807", 
"latitude": 48.8347558557, 
"longitude": 2.37627345669, 
"name": "13123 - BIBLIOTH\u00c8QUE FRAN\u00c7OIS MITTERAND", 
"sid": "13123"
}, 
{
"address": "GARE D'AUSTERLITZ - 75013 PARIS", 
"available_bike": "7", 
"available_spaces": "48", 
"city": "paris", 
"last_update": "2011-05-23 22:40:22.716625", 
"latitude": 48.8423531859, 
"longitude": 2.3663528434, 
"name": "13151 - GARE D'AUSTERLITZ", 
"sid": "13151"
}, 
{
"address": "9 BOULEVARD DE L'HOPITAL - 75013 PARIS", 
"available_bike": "6", 
"available_spaces": "7", 
"city": "paris", 
"last_update": "2011-05-23 22:40:21.761009", 
"latitude": 48.8413383536, 
"longitude": 2.36305717925, 
"name": "13514 - GARE D'AUSTERLITZ 2", 
"sid": "13514"
}, 
{
"address": "13 BOULEVARD EDGAR QUINET - 75014 PARIS", 
"available_bike": "7", 
"available_spaces": "19", 
"city": "paris", 
"last_update": "2011-05-23 22:41:42.076243", 
"latitude": 48.8410528634, 
"longitude": 2.32448285507, 
"name": "14001 - EDGAR QUINET", 
"sid": "14001"
}, 
{
"address": "FACE 4 BD EDGAR QUINET - 75014 PARIS", 
"available_bike": 0, 
"available_spaces": "22", 
"city": "paris", 
"last_update": "2011-05-23 22:41:03.597133", 
"latitude": 48.8392648091, 
"longitude": 2.33007928613, 
"name": "14002 - RASPAIL QUINET", 
"sid": "14002"
}, 
{
"address": "2 RUE VICTOR SCHOELCHER - 75014 PARIS", 
"available_bike": "3", 
"available_spaces": "44", 
"city": "paris", 
"last_update": "2011-05-23 22:41:04.331329", 
"latitude": 48.8369101346, 
"longitude": 2.33131857048, 
"name": "14003 - RASPAIL SCHOELCHER", 
"sid": "14003"
}, 
{
"address": "111 BD PORT ROYAL - 75014 PARIS", 
"available_bike": "4", 
"available_spaces": "19", 
"city": "paris", 
"last_update": "2011-05-23 22:41:02.307921", 
"latitude": 48.8381145297, 
"longitude": 2.3418157888, 
"name": "14004 - PORT ROYAL COCHIN", 
"sid": "14004"
}, 
{
"address": "2 AVENUE RENE COTY - 75014 PARIS", 
"available_bike": 0, 
"available_spaces": "17", 
"city": "paris", 
"last_update": "2011-05-23 22:39:45.575304", 
"latitude": 48.8332971823, 
"longitude": 2.33263954011, 
"name": "14005 - DENFERT ROCHEREAU", 
"sid": "14005"
}, 
{
"address": "46 BOULEVARD SAINT JACQUES - 75014 PARIS", 
"available_bike": "2", 
"available_spaces": "20", 
"city": "paris", 
"last_update": "2011-05-23 22:41:02.238176", 
"latitude": 48.8332613201, 
"longitude": 2.33672373561, 
"name": "14006 - SAINT JACQUES TOMBE ISSOIRE", 
"sid": "14006"
}, 
{
"address": "1 RUE FERRUS - 75014 PARIS", 
"available_bike": "16", 
"available_spaces": "17", 
"city": "paris", 
"last_update": "2011-05-23 22:40:43.256857", 
"latitude": 48.8313379113, 
"longitude": 2.34108006553, 
"name": "14007 - SAINT JACQUES FERRUS", 
"sid": "14007"
}, 
{
"address": "5 RUE MOUTON DUVERNET - 75014 PARIS", 
"available_bike": "10", 
"available_spaces": "25", 
"city": "paris", 
"last_update": "2011-05-23 22:41:01.701644", 
"latitude": 48.8313916493, 
"longitude": 2.32954944868, 
"name": "14008 - MOUTON DUVERNET", 
"sid": "14008"
}, 
{
"address": "49 RUE DE LA TOMBE D'ISSOIRE - 75014 PARIS", 
"available_bike": "17", 
"available_spaces": "18", 
"city": "paris", 
"last_update": "2011-05-23 22:39:50.472771", 
"latitude": 48.8305559994, 
"longitude": 2.33378329803, 
"name": "14009 - COTY TOMBE D'ISSOIRE", 
"sid": "14009"
}, 
{
"address": "12 AVENUE JEAN MOULIN - 75014 PARIS", 
"available_bike": "9", 
"available_spaces": "29", 
"city": "paris", 
"last_update": "2011-05-23 22:41:00.933690", 
"latitude": 48.8274367778, 
"longitude": 2.32567048851, 
"name": "14010 - JEAN MOULIN ALESIA", 
"sid": "14010"
}, 
{
"address": "6 RUE SARRETTE - 75014 PARIS", 
"available_bike": "21", 
"available_spaces": 0, 
"city": "paris", 
"last_update": "2011-05-23 22:40:42.178960", 
"latitude": 48.8275900153, 
"longitude": 2.33200026059, 
"name": "14011 - ALESIA SARRETTE", 
"sid": "14011"
}, 
{
"address": "FACE 2 AVENUE DE LA SIBELLE - 75014 PARIS", 
"available_bike": "16", 
"available_spaces": "8", 
"city": "paris", 
"last_update": "2011-05-23 22:40:32.623778", 
"latitude": 48.8267542718, 
"longitude": 2.3386567439, 
"name": "14012 - SIBELLE ALESIA", 
"sid": "14012"
}, 
{
"address": "1 RUE LIARD - 75014 PARIS", 
"available_bike": "8", 
"available_spaces": "4", 
"city": "paris", 
"last_update": "2011-05-23 22:41:01.346097", 
"latitude": 48.8211818125, 
"longitude": 2.34242678637, 
"name": "14013 - LIART AMIRAL MOUCHEZ", 
"sid": "14013"
}, 
{
"address": "5 BOULEVARD JOURDAN - 75014 PARIS", 
"available_bike": "50", 
"available_spaces": "9", 
"city": "paris", 
"last_update": "2011-05-23 22:40:02.383686", 
"latitude": 48.8192763426, 
"longitude": 2.34399178163, 
"name": "14014 - STADE CHARLETY", 
"sid": "14014"
}, 
{
"address": "FACE 15 BOULEVARD JOURDAN - 75014 PARIS", 
"available_bike": "1", 
"available_spaces": "17", 
"city": "paris", 
"last_update": "2011-05-23 22:41:00.577386", 
"latitude": 48.8204449272, 
"longitude": 2.33854768832, 
"name": "14015 - CITE UNIVERSITAIRE", 
"sid": "14015"
}, 
{
"address": "61 AVENUE RENE COTY - 75014 PARIS", 
"available_bike": "11", 
"available_spaces": "42", 
"city": "paris", 
"last_update": "2011-05-23 22:40:28.224072", 
"latitude": 48.8246242002, 
"longitude": 2.33615213189, 
"name": "14016 - REILLE MONTSOURIS", 
"sid": "14016"
}, 
{
"address": "160 RUE TOMBE ISSOIRE - 75014 PARIS", 
"available_bike": 0, 
"available_spaces": 0, 
"city": "paris", 
"last_update": "2011-05-23 22:40:28.146237", 
"latitude": 48.8222872064, 
"longitude": 2.33028579919, 
"name": "14017 - JOURDAN TOMBE ISSOIRE", 
"sid": "14017"
}, 
{
"address": "6 PLACE DU 25 AOUT 1944 - 75014 PARIS", 
"available_bike": 0, 
"available_spaces": "33", 
"city": "paris", 
"last_update": "2011-05-23 22:40:28.104084", 
"latitude": 48.8228709849, 
"longitude": 2.32505900124, 
"name": "14018 - PORTE D'ORLEANS", 
"sid": "14018"
}, 
{
"address": "58 RUE SARRETTE - 75014 PARIS", 
"available_bike": 0, 
"available_spaces": "22", 
"city": "paris", 
"last_update": "2011-05-23 22:40:28.047382", 
"latitude": 48.8248933096, 
"longitude": 2.32606579775, 
"name": "14019 - SARETTE GENERAL LECLERC", 
"sid": "14019"
}, 
{
"address": "AV. DE LA PORTE DE MONTROUGE - 75014 PARIS", 
"available_bike": "32", 
"available_spaces": "22", 
"city": "paris", 
"last_update": "2011-05-23 22:40:27.961617", 
"latitude": 48.821216774, 
"longitude": 2.32105781022, 
"name": "14020 - PORTE DE MONTROUGE", 
"sid": "14020"
}, 
{
"address": "BOULEVARD BRUNE PORTE DE CHATILLON - 75014 PARIS", 
"available_bike": "10", 
"available_spaces": "48", 
"city": "paris", 
"last_update": "2011-05-23 22:40:09.708993", 
"latitude": 48.8244699418, 
"longitude": 2.31852502472, 
"name": "14021 - PLACE DE LA PORTE DE CHATILLON", 
"sid": "14021"
}, 
{
"address": "108 RUE DIDOT - 75014 PARIS", 
"available_bike": 0, 
"available_spaces": 0, 
"city": "paris", 
"last_update": "2011-05-23 22:39:44.743779", 
"latitude": 48.8264642264, 
"longitude": 2.31310665273, 
"name": "14022 - BRUNE DIDOT", 
"sid": "14022"
}, 
{
"address": "76-78 BOULEVARD ADOLPHE PINARD - 75014 PARIS", 
"available_bike": "13", 
"available_spaces": "35", 
"city": "paris", 
"last_update": "2011-05-23 22:41:22.899480", 
"latitude": 48.8236859741, 
"longitude": 2.30833032171, 
"name": "14023 - MALAKOFF PINARD", 
"sid": "14023"
}, 
{
"address": "RUE VERCINGETORIX - 75014 PARIS", 
"available_bike": "2", 
"available_spaces": "22", 
"city": "paris", 
"last_update": "2011-05-23 22:39:44.708970", 
"latitude": 48.828026337, 
"longitude": 2.30567344529, 
"name": "14024 - RAYMOND LAUSSERAND", 
"sid": "14024"
}, 
{
"address": "10 RUE JACQUIER - 75014 PARIS", 
"available_bike": "35", 
"available_spaces": 0, 
"city": "paris", 
"last_update": "2011-05-23 22:40:01.445706", 
"latitude": 48.8296018387, 
"longitude": 2.31821007331, 
"name": "14025 - JACQUIER", 
"sid": "14025"
}, 
{
"address": "23 RUE DES PLANTES - 75014 PARIS", 
"available_bike": "29", 
"available_spaces": "4", 
"city": "paris", 
"last_update": "2011-05-23 22:40:39.810974", 
"latitude": 48.8299260747, 
"longitude": 2.3230970571, 
"name": "14026 - PLANTES MOULIN VERT", 
"sid": "14026"
}, 
{
"address": "FACE 83 RUE DE GERGOVIE - 75014 PARIS", 
"available_bike": "11", 
"available_spaces": "25", 
"city": "paris", 
"last_update": "2011-05-23 22:40:39.617712", 
"latitude": 48.8307883078, 
"longitude": 2.31886307755, 
"name": "14027 - ALESIA GERGOVIE", 
"sid": "14027"
}, 
{
"address": "164 RUE ALESIA - 75014 PARIS", 
"available_bike": "5", 
"available_spaces": "42", 
"city": "paris", 
"last_update": "2011-05-23 22:39:44.584271", 
"latitude": 48.8316414841, 
"longitude": 2.3150645948, 
"name": "14028 - PLAISANCE ALESIA", 
"sid": "14028"
}, 
{
"address": "112 RUE VERCINGETORIX - 75014 PARIS", 
"available_bike": "6", 
"available_spaces": "61", 
"city": "paris", 
"last_update": "2011-05-23 22:40:38.527755", 
"latitude": 48.834229552, 
"longitude": 2.31319833872, 
"name": "14029 - GERGOVIE VERCINGETORIX", 
"sid": "14029"
}, 
{
"address": "61 RUE PERNETY - 75014 PARIS", 
"available_bike": "9", 
"available_spaces": "24", 
"city": "paris", 
"last_update": "2011-05-23 22:40:38.947253", 
"latitude": 48.8342303547, 
"longitude": 2.31756850589, 
"name": "14030 - LOSSERAND - PERNETY", 
"sid": "14030"
}, 
{
"address": "11 RUE DIDOT - 75014 PARIS", 
"available_bike": "10", 
"available_spaces": "5", 
"city": "paris", 
"last_update": "2011-05-23 22:40:40.396663", 
"latitude": 48.8338445057, 
"longitude": 2.32174818947, 
"name": "14031 - DIDOT CHATEAU", 
"sid": "14031"
}, 
{
"address": "26 RUE MOUTON DUVERNET - 75014 PARIS", 
"available_bike": "26", 
"available_spaces": "3", 
"city": "paris", 
"last_update": "2011-05-23 22:40:39.189143", 
"latitude": 48.8324428479, 
"longitude": 2.32528818583, 
"name": "14032 - MOUTON DUVERNET - MAIRIE DU 14EME", 
"sid": "14032"
}, 
{
"address": "31 RUE FRODEVAUX - 75014 PARIS", 
"available_bike": "22", 
"available_spaces": "16", 
"city": "paris", 
"last_update": "2011-05-23 22:40:38.932300", 
"latitude": 48.835714584, 
"longitude": 2.32811927197, 
"name": "14033 - DAGUERRE GASSENDI", 
"sid": "14033"
}, 
{
"address": "48 RUE DE L'OUEST - 75014 PARIS", 
"available_bike": "4", 
"available_spaces": "20", 
"city": "paris", 
"last_update": "2011-05-23 22:39:44.324567", 
"latitude": 48.8361090134, 
"longitude": 2.31916071563, 
"name": "14034 - RUE DE L OUEST CHATEAU", 
"sid": "14034"
}, 
{
"address": "90 AVENUE DU MAINE - 75014 PARIS", 
"available_bike": "21", 
"available_spaces": "26", 
"city": "paris", 
"last_update": "2011-05-23 22:39:44.279619", 
"latitude": 48.8376912869, 
"longitude": 2.32249587246, 
"name": "14035 - MAINE GAITE", 
"sid": "14035"
}, 
{
"address": "14 RUE BOULARD - 75014 PARIS", 
"available_bike": "2", 
"available_spaces": "40", 
"city": "paris", 
"last_update": "2011-05-23 22:39:44.235408", 
"latitude": 48.8341867694, 
"longitude": 2.32916783563, 
"name": "14036 - BOULARD DAGUERRE", 
"sid": "14036"
}, 
{
"address": "56 AVENUE JEAN MOULIN - 75014 PARIS", 
"available_bike": "3", 
"available_spaces": "30", 
"city": "paris", 
"last_update": "2011-05-23 22:40:37.797258", 
"latitude": 48.8256927134, 
"longitude": 2.32164172899, 
"name": "14037 - JEAN MOULIN", 
"sid": "14037"
}, 
{
"address": "33 BD EDGAR QUINET - 75014 PARIS", 
"available_bike": "12", 
"available_spaces": "20", 
"city": "paris", 
"last_update": "2011-05-23 22:41:46.485049", 
"latitude": 48.8417177219, 
"longitude": 2.32257642432, 
"name": "14101 - PLACE FERNAND MOURLOT", 
"sid": "14101"
}, 
{
"address": "132 \/ 136 AVENUE DU MAINE - 75014 PARIS", 
"available_bike": "2", 
"available_spaces": "25", 
"city": "paris", 
"last_update": "2011-05-23 22:41:35.062047", 
"latitude": 48.8351030049, 
"longitude": 2.32368106641, 
"name": "14103 - MAINE LIANCOURT", 
"sid": "14103"
}, 
{
"address": "4 RUE BOYER BARRET - 75014 PARIS", 
"available_bike": "8", 
"available_spaces": "14", 
"city": "paris", 
"last_update": "2011-05-23 22:41:51.420226", 
"latitude": 48.8331967149, 
"longitude": 2.31717409323, 
"name": "14104 - LOSSERAND BOYER-BARRET", 
"sid": "14104"
}, 
{
"address": "FACE 58 AVENUE MARC SANGNIER - 75014 PARIS", 
"available_bike": "9", 
"available_spaces": "12", 
"city": "paris", 
"last_update": "2011-05-23 22:40:02.427760", 
"latitude": 48.8253761398, 
"longitude": 2.31039838959, 
"name": "14106 - STADE DIDOT", 
"sid": "14106"
}, 
{
"address": "2 AVENUE DE LA PORTE DE MONTROUGE - 75014 PARIS", 
"available_bike": "5", 
"available_spaces": "28", 
"city": "paris", 
"last_update": "2011-05-23 22:39:58.111719", 
"latitude": 48.8235987566, 
"longitude": 2.32298989139, 
"name": "14107 - PORTE DE MONTROUGE 2", 
"sid": "14107"
}, 
{
"address": "RUE LE BRIX ET MESNIN - 75014 PARIS", 
"available_bike": 0, 
"available_spaces": "21", 
"city": "paris", 
"last_update": "2011-05-23 22:39:57.293106", 
"latitude": 48.8222061454, 
"longitude": 2.32779498343, 
"name": "14108 - JOURDAN LE BRIX ET MESNIN", 
"sid": "14108"
}, 
{
"address": "132 RUE DE LA TOMBE ISSOIRE - 75014 PARIS", 
"available_bike": "13", 
"available_spaces": "3", 
"city": "paris", 
"last_update": "2011-05-23 22:41:46.751030", 
"latitude": 48.8244712554, 
"longitude": 2.33108859444, 
"name": "14109 - TOMBE ISSOIRE REGNAULT", 
"sid": "14109"
}, 
{
"address": "89 RUE DE L'ABBE CARTON - 75014 PARIS", 
"available_bike": "8", 
"available_spaces": "16", 
"city": "paris", 
"last_update": "2011-05-23 22:40:02.190103", 
"latitude": 48.8277238047, 
"longitude": 2.32076991659, 
"name": "14110 - ABBE CARTON", 
"sid": "14110"
}, 
{
"address": "18 RUE CASSINI - 75014 PARIS", 
"available_bike": "3", 
"available_spaces": "21", 
"city": "paris", 
"last_update": "2011-05-23 22:41:47.224354", 
"latitude": 48.8375573809, 
"longitude": 2.33597486121, 
"name": "14111 - DENFERT-ROCHEREAU CASSINI", 
"sid": "14111"
}, 
{
"address": "24 RUE MECHAIN - 75014 PARIS", 
"available_bike": "2", 
"available_spaces": "14", 
"city": "paris", 
"last_update": "2011-05-23 22:40:00.719338", 
"latitude": 48.8358407557, 
"longitude": 2.33831662349, 
"name": "14112 - FAUBOURG SAINT JACQUES CASSINI", 
"sid": "14112"
}, 
{
"address": "36 RUE DE LA SANTE - 75014 PARIS", 
"available_bike": "20", 
"available_spaces": "15", 
"city": "paris", 
"last_update": "2011-05-23 22:41:35.292013", 
"latitude": 48.8351576226, 
"longitude": 2.3416521551, 
"name": "14113 - ARAGO 2", 
"sid": "14113"
}, 
{
"address": "4 RUE ALAIN - 75014 PARIS", 
"available_bike": "1", 
"available_spaces": "42", 
"city": "paris", 
"last_update": "2011-05-23 22:40:30.556579", 
"latitude": 48.8373041129, 
"longitude": 2.31759456981, 
"name": "14114 - PLACE DE CATALOGNE", 
"sid": "14114"
}, 
{
"address": "AVENUE MAURICE D'OCAGNE - 75014 PARIS", 
"available_bike": "3", 
"available_spaces": "25", 
"city": "paris", 
"last_update": "2011-05-23 22:40:04.683058", 
"latitude": 48.8237685839, 
"longitude": 2.31659244699, 
"name": "14115 - CIT\u00c9 UNIVERSITAIRE", 
"sid": "14115"
}, 
{
"address": "49-51 BD ROMAIN ROLLAND - 75014 PARIS", 
"available_bike": "9", 
"available_spaces": "16", 
"city": "paris", 
"last_update": "2011-05-23 22:40:04.568441", 
"latitude": 48.8202284122, 
"longitude": 2.32330386036, 
"name": "14116 - ROMAIN ROLLAND", 
"sid": "14116"
}, 
{
"address": "5 RUE DU COMMANDANT RENE MOUCHOTTE - 75014 PARIS", 
"available_bike": "17", 
"available_spaces": "22", 
"city": "paris", 
"last_update": "2011-05-23 22:40:31.038544", 
"latitude": 48.839362728, 
"longitude": 2.32063006318, 
"name": "14117 - MOUCHOTTE", 
"sid": "14117"
}, 
{
"address": "7 RUE HENRI BARBOUX - 75014 PARIS", 
"available_bike": "4", 
"available_spaces": "24", 
"city": "paris", 
"last_update": "2011-05-23 22:40:05.241794", 
"latitude": 48.8218645268, 
"longitude": 2.32676061083, 
"name": "14120 - JOURDAN BARBOUX", 
"sid": "14120"
}, 
{
"address": "1 RUE DU COLONEL MONTEIL - 75014 PARIS", 
"available_bike": "2", 
"available_spaces": "17", 
"city": "paris", 
"last_update": "2011-05-23 22:40:04.616997", 
"latitude": 48.8263555308, 
"longitude": 2.30925446105, 
"name": "14122 - BRUNE", 
"sid": "14122"
}, 
{
"address": "AVENUE DAVID WEIL - 75014 PARIS", 
"available_bike": "6", 
"available_spaces": "17", 
"city": "paris", 
"last_update": "2011-05-23 22:40:05.341989", 
"latitude": 48.8210470591, 
"longitude": 2.33378393368, 
"name": "14124 - PORTE D'ARCUEIL", 
"sid": "14124"
}, 
{
"address": "34 RUE DAREAU - 75014 PARIS", 
"available_bike": "13", 
"available_spaces": "11", 
"city": "paris", 
"last_update": "2011-05-23 22:40:00.770257", 
"latitude": 48.8307627596, 
"longitude": 2.33609754841, 
"name": "14125 - DAREAU", 
"sid": "14125"
}, 
{
"address": "155 AVENUE PAUL VAILLANT COUTURIER - 75014 PARIS", 
"available_bike": "4", 
"available_spaces": "38", 
"city": "paris", 
"last_update": "2011-05-23 22:40:10.020989", 
"latitude": 48.8170924232, 
"longitude": 2.3324640538, 
"name": "14126 - VAILLANT COUTURIER", 
"sid": "14126"
}, 
{
"address": "5-7 RUE D'ODESSA - 75014 PARIS", 
"available_bike": "2", 
"available_spaces": "38", 
"city": "paris", 
"last_update": "2011-05-23 22:40:07.723690", 
"latitude": 48.8430660529, 
"longitude": 2.3243053444, 
"name": "14127 - ODESSA", 
"sid": "14127"
}, 
{
"address": "8 RUE DE L'ARRIVEE - 75015 PARIS", 
"available_bike": 0, 
"available_spaces": "29", 
"city": "paris", 
"last_update": "2011-05-23 22:39:50.209980", 
"latitude": 48.8438657673, 
"longitude": 2.32278006798, 
"name": "15001 - ARRIVEE", 
"sid": "15001"
}, 
{
"address": "26 AVENUE DU MAINE - 75015 PARIS", 
"available_bike": "1", 
"available_spaces": "16", 
"city": "paris", 
"last_update": "2011-05-23 22:39:51.495920", 
"latitude": 48.8430925457, 
"longitude": 2.3205335522, 
"name": "15002 - BOURDELLE", 
"sid": "15002"
}, 
{
"address": "TP DU 1-13 BOULEVARD DE VAUGIRARD - 75015 PARIS", 
"available_bike": "1", 
"available_spaces": "66", 
"city": "paris", 
"last_update": "2011-05-23 22:40:07.810425", 
"latitude": 48.8414924469, 
"longitude": 2.31840995086, 
"name": "15003 - GARE DE MONTPARNASSE", 
"sid": "15003"
}, 
{
"address": "DEV 71 BOULEVARD DE VAUGIRARD - 75015 PARIS", 
"available_bike": "6", 
"available_spaces": "15", 
"city": "paris", 
"last_update": "2011-05-23 22:41:00.385570", 
"latitude": 48.8405212577, 
"longitude": 2.31529226711, 
"name": "15004 - VAUGIRARD PASTEUR", 
"sid": "15004"
}, 
{
"address": "FACE 24 BOULEVARD PASTEUR - 75015 PARIS", 
"available_bike": 0, 
"available_spaces": "22", 
"city": "paris", 
"last_update": "2011-05-23 22:39:50.051450", 
"latitude": 48.8426507943, 
"longitude": 2.3126770094, 
"name": "15005 - PLACE TREFOUEL", 
"sid": "15005"
}, 
{
"address": "FACE AU 138 RUE DU CHERCHE MIDI - 75015 PARIS", 
"available_bike": "5", 
"available_spaces": "31", 
"city": "paris", 
"last_update": "2011-05-23 22:40:08.431820", 
"latitude": 48.8444222659, 
"longitude": 2.31768719079, 
"name": "15006 - CHERCHE MIDI", 
"sid": "15006"
}, 
{
"address": "FACE 4 BOULEVARD PASTEUR - 75015 PARIS", 
"available_bike": "49", 
"available_spaces": "12", 
"city": "paris", 
"last_update": "2011-05-23 22:39:49.998473", 
"latitude": 48.8447984556, 
"longitude": 2.31100110063, 
"name": "15008 - SEVRES LECOURBE", 
"sid": "15008"
}, 
{
"address": "140 AVENUE DE SUFFREN - 75015 PARIS", 
"available_bike": "45", 
"available_spaces": "1", 
"city": "paris", 
"last_update": "2011-05-23 22:40:58.264121", 
"latitude": 48.8471522609, 
"longitude": 2.30710526991, 
"name": "15009 - SUFFREN", 
"sid": "15009"
}, 
{
"address": "FACE 3 BD GARIBALDI - 75015 PARIS", 
"available_bike": "40", 
"available_spaces": "19", 
"city": "paris", 
"last_update": "2011-05-23 22:39:49.890845", 
"latitude": 48.8476273997, 
"longitude": 2.30269284415, 
"name": "15010 - CAMBRONNE", 
"sid": "15010"
}, 
{
"address": "32 RUE CAMBRONNE - 75015 PARIS", 
"available_bike": "61", 
"available_spaces": 0, 
"city": "paris", 
"last_update": "2011-05-23 22:40:09.494885", 
"latitude": 48.8458026924, 
"longitude": 2.30186340651, 
"name": "15011 - THEBAUD RUE DE CAMBRONNE", 
"sid": "15011"
}, 
{
"address": "76 RUE CAMBRONNE - 75015 PARIS", 
"available_bike": "49", 
"available_spaces": "17", 
"city": "paris", 
"last_update": "2011-05-23 22:39:49.808596", 
"latitude": 48.8429538447, 
"longitude": 2.30253255933, 
"name": "15012 - MADEMOISELLE", 
"sid": "15012"
}, 
{
"address": "DEV 1 RUE DES VOLONTAIRES - 75015 PARIS", 
"available_bike": "54", 
"available_spaces": 0, 
"city": "paris", 
"last_update": "2011-05-23 22:40:08.788171", 
"latitude": 48.8435571686, 
"longitude": 2.3067669422, 
"name": "15013 - LECOURBE VOLONTAIRE", 
"sid": "15013"
}, 
{
"address": "25 RUE DES VOLONTAIRES - 75015 PARIS", 
"available_bike": "24", 
"available_spaces": "9", 
"city": "paris", 
"last_update": "2011-05-23 22:40:05.699992", 
"latitude": 48.8415802351, 
"longitude": 2.30806163893, 
"name": "15014 - VOLONTAIRES", 
"sid": "15014"
}, 
{
"address": "59 RUE DUTOT - 75015 PARIS", 
"available_bike": "9", 
"available_spaces": "31", 
"city": "paris", 
"last_update": "2011-05-23 22:40:59.467681", 
"latitude": 48.8382549332, 
"longitude": 2.30844473785, 
"name": "15016 - DUTOT", 
"sid": "15016"
}, 
{
"address": "7 PLACE FALGUIERE - 75015 PARIS", 
"available_bike": "13", 
"available_spaces": "7", 
"city": "paris", 
"last_update": "2011-05-23 22:40:59.468595", 
"latitude": 48.836314048, 
"longitude": 2.31028381026, 
"name": "15017 - PROCESSION", 
"sid": "15017"
}, 
{
"address": "85 RUE DUTOT - 75015 PARIS", 
"available_bike": "32", 
"available_spaces": "23", 
"city": "paris", 
"last_update": "2011-05-23 22:40:59.325243", 
"latitude": 48.8366997392, 
"longitude": 2.30705688384, 
"name": "15018 - ALLERAY", 
"sid": "15018"
}, 
{
"address": "3 RUE PAUL BARRUEL - 75015 PARIS", 
"available_bike": "27", 
"available_spaces": "9", 
"city": "paris", 
"last_update": "2011-05-23 22:39:49.504260", 
"latitude": 48.8401951988, 
"longitude": 2.30439976941, 
"name": "15019 - VAUGIRARD CAMBRONNE", 
"sid": "15019"
}, 
{
"address": "4 RUE LEON SECHE - 75015 PARIS", 
"available_bike": "32", 
"available_spaces": 0, 
"city": "paris", 
"last_update": "2011-05-23 22:40:08.523207", 
"latitude": 48.8417392574, 
"longitude": 2.29842127963, 
"name": "15020 - MAIRIE DU 15EME", 
"sid": "15020"
}, 
{
"address": "DEV 2 RUE JOSEPH LOUVILLE - 75015 PARIS", 
"available_bike": "60", 
"available_spaces": 0, 
"city": "paris", 
"last_update": "2011-05-23 22:39:49.374246", 
"latitude": 48.8449475176, 
"longitude": 2.29754738738, 
"name": "15021 - CROIX NIVERT", 
"sid": "15021"
}, 
{
"address": "2 RUE FREMICOURT - 75015 PARIS", 
"available_bike": "39", 
"available_spaces": 0, 
"city": "paris", 
"last_update": "2011-05-23 22:40:04.972283", 
"latitude": 48.8469332058, 
"longitude": 2.29592537736, 
"name": "15022 - ZOLA", 
"sid": "15022"
}, 
{
"address": "146 BOULEVARD GRENELLE - 75015 PARIS", 
"available_bike": "27", 
"available_spaces": "6", 
"city": "paris", 
"last_update": "2011-05-23 22:40:09.655641", 
"latitude": 48.848938207, 
"longitude": 2.29826609151, 
"name": "15023 - LA MOTTE PIQUET", 
"sid": "15023"
}, 
{
"address": "88 AVENUE DE SUFFREN - 75015 PARIS", 
"available_bike": "7", 
"available_spaces": "13", 
"city": "paris", 
"last_update": "2011-05-23 22:39:49.322889", 
"latitude": 48.8507455719, 
"longitude": 2.30105653883, 
"name": "15024 - LAOS", 
"sid": "15024"
}, 
{
"address": "26 RUE DUPLEIX - 75015 PARIS", 
"available_bike": "48", 
"available_spaces": 0, 
"city": "paris", 
"last_update": "2011-05-23 22:39:49.274796", 
"latitude": 48.8513014326, 
"longitude": 2.29682073188, 
"name": "15025 - AMETTE", 
"sid": "15025"
}, 
{
"address": "4 RUE ANDRE GIDE  - 75015 PARIS", 
"available_bike": "4", 
"available_spaces": "16", 
"city": "paris", 
"last_update": "2011-05-23 22:39:37.051345", 
"latitude": 48.8365662244, 
"longitude": 2.3127071211, 
"name": "15027 - GIDE", 
"sid": "15027"
}, 
{
"address": "54 BOULEVARD DE GRENELLE - 75015 PARIS", 
"available_bike": "50", 
"available_spaces": "18", 
"city": "paris", 
"last_update": "2011-05-23 22:40:02.242557", 
"latitude": 48.8513174337, 
"longitude": 2.29137323325, 
"name": "15028 - DUPLEIX", 
"sid": "15028"
}, 
{
"address": "27 RUE EMERIAU - 75015 PARIS", 
"available_bike": "52", 
"available_spaces": 0, 
"city": "paris", 
"last_update": "2011-05-23 22:39:49.113378", 
"latitude": 48.8505339025, 
"longitude": 2.28734284728, 
"name": "15029 - EMERIAU", 
"sid": "15029"
}, 
{
"address": "66 RUE EMERIAU - 75015 PARIS", 
"available_bike": "19", 
"available_spaces": "13", 
"city": "paris", 
"last_update": "2011-05-23 22:40:56.637671", 
"latitude": 48.8480431245, 
"longitude": 2.2844582582, 
"name": "15030 - LINOIS", 
"sid": "15030"
}, 
{
"address": "60 RUE DU THEATRE - 75015 PARIS", 
"available_bike": "51", 
"available_spaces": "2", 
"city": "paris", 
"last_update": "2011-05-23 22:40:56.400344", 
"latitude": 48.8482521053, 
"longitude": 2.28985073839, 
"name": "15031 - THEATRE", 
"sid": "15031"
}, 
{
"address": "112 AVE FELIX FAURE - 75015 PARIS", 
"available_bike": "42", 
"available_spaces": "15", 
"city": "paris", 
"last_update": "2011-05-23 22:39:48.961922", 
"latitude": 48.8386499962, 
"longitude": 2.28190812282, 
"name": "15032 - LOURMEL", 
"sid": "15032"
}, 
{
"address": "5 PLACE VIOLET - 75015 PARIS", 
"available_bike": "45", 
"available_spaces": 0, 
"city": "paris", 
"last_update": "2011-05-23 22:39:48.914654", 
"latitude": 48.8448281245, 
"longitude": 2.29050748365, 
"name": "15033 - VIOLET", 
"sid": "15033"
}, 
{
"address": "2 RUE LAKANAL - 75015 PARIS", 
"available_bike": "47", 
"available_spaces": "7", 
"city": "paris", 
"last_update": "2011-05-23 22:39:48.840395", 
"latitude": 48.8443710288, 
"longitude": 2.29385765096, 
"name": "15034 - COMMERCE", 
"sid": "15034"
}, 
{
"address": "2 RUE DES FRERES MORANE - 75015 PARIS", 
"available_bike": "41", 
"available_spaces": 0, 
"city": "paris", 
"last_update": "2011-05-23 22:40:05.018094", 
"latitude": 48.842411172, 
"longitude": 2.29230702329, 
"name": "15035 - PLACE ETIENNE PERNET", 
"sid": "15035"
}, 
{
"address": "102 RUE DE LA CROIX NIVERT - 75015 PARIS", 
"available_bike": "44", 
"available_spaces": "3", 
"city": "paris", 
"last_update": "2011-05-23 22:39:48.743582", 
"latitude": 48.8430413298, 
"longitude": 2.29512510171, 
"name": "15036 - LAMBERT", 
"sid": "15036"
}, 
{
"address": "202 RUE LECOURBE - 75015 PARIS", 
"available_bike": "33", 
"available_spaces": "14", 
"city": "paris", 
"last_update": "2011-05-23 22:40:55.467167", 
"latitude": 48.8403990843, 
"longitude": 2.29538594837, 
"name": "15037 - GROULT", 
"sid": "15037"
}, 
{
"address": "18 PLACE ADOLPHE CHERIOUX - 75015 PARIS", 
"available_bike": "34", 
"available_spaces": "1", 
"city": "paris", 
"last_update": "2011-05-23 22:39:48.624374", 
"latitude": 48.8393583102, 
"longitude": 2.30080578742, 
"name": "15038 - PLACE ADOLPHE CHERIOUX", 
"sid": "15038"
}, 
{
"address": "133 RUE DE L'ABBE GROULT - 75015 PARIS", 
"available_bike": "11", 
"available_spaces": 0, 
"city": "paris", 
"last_update": "2011-05-23 22:40:54.948478", 
"latitude": 48.8357816622, 
"longitude": 2.30215614889, 
"name": "15039 - CHARLES VALLIN", 
"sid": "15039"
}, 
{
"address": "33 BIS RUE SAINT AMAND - 75015 PARIS", 
"available_bike": "34", 
"available_spaces": "2", 
"city": "paris", 
"last_update": "2011-05-23 22:40:07.653644", 
"latitude": 48.8339589837, 
"longitude": 2.3089236185, 
"name": "15040 - MONCLAR", 
"sid": "15040"
}, 
{
"address": "13 RUE FRANQUET - 75015 PARIS", 
"available_bike": "26", 
"available_spaces": "10", 
"city": "paris", 
"last_update": "2011-05-23 22:39:36.895510", 
"latitude": 48.8328350232, 
"longitude": 2.30685492489, 
"name": "15041 - LABROUSTE", 
"sid": "15041"
}, 
{
"address": "52 RUE HENRY FARMAN - 75015 PARIS", 
"available_bike": 0, 
"available_spaces": "21", 
"city": "paris", 
"last_update": "2011-05-23 22:39:36.846835", 
"latitude": 48.8340971804, 
"longitude": 2.27185208694, 
"name": "15042 - FARMAN", 
"sid": "15042"
}, 
{
"address": "122 RUE BRANCION - 75015 PARIS", 
"available_bike": "6", 
"available_spaces": "4", 
"city": "paris", 
"last_update": "2011-05-23 22:39:36.773317", 
"latitude": 48.829049721, 
"longitude": 2.301411994, 
"name": "15043 - BRANCION", 
"sid": "15043"
}, 
{
"address": "65 RUE DANTZIG - 75015 PARIS", 
"available_bike": "28", 
"available_spaces": "4", 
"city": "paris", 
"last_update": "2011-05-23 22:40:07.952581", 
"latitude": 48.8305849728, 
"longitude": 2.29634679578, 
"name": "15044 - J DUPRE", 
"sid": "15044"
},