[{"available_bike":"3","available_spaces":"17","city":"tlv","last_update":"2012-11-12 11:08:11.680","latitude":32.1438,"location":"32.1438,34.7926","longitude":34.7926,"name":"חוף הצוק הצפוני","sid":"101","address":"חוף הצוק הצפוני מלון מנדרין","name_en":"North Cliff Beach","address_en":"North Cliff Beach"},{"available_bike":"9","available_spaces":"11","city":"tlv","last_update":"2012-11-12 11:08:11.680","latitude":32.1403,"location":"32.1403,34.791","longitude":34.791,"name":"חוף הצוק הדרומי סאמט שמעון","sid":"102","address":"חוף הצוק הדרומי סאמט שמעון","name_en":"South Cliff Beach","address_en":"South Cliff Beach"},{"available_bike":"6","available_spaces":"14","city":"tlv","last_update":"2012-11-12 11:08:11.680","latitude":32.1298,"location":"32.1298,34.7923","longitude":34.7923,"name":"אזורי חן  גרינברג 26","sid":"104","address":"אזורי חן  גרינברג 26","name_en":"Azorei Chen – 26 Greenberg St.","address_en":"Azorei Chen – 26 Greenberg St."},{"available_bike":"4","available_spaces":"17","city":"tlv","last_update":"2012-11-12 11:08:11.680","latitude":32.1247,"location":"32.1247,34.8018","longitude":34.8018,"name":"מרכז שוסטר אחימאיר 18","sid":"105","address":"מרכז שוסטר אחימאיר 18","name_en":"18 Aba Ahimeir St.- Shuster Center ","address_en":"18 Aba Ahimeir St.- Shuster Center "},{"available_bike":"8","available_spaces":"12","city":"tlv","last_update":"2012-11-12 11:08:11.680","latitude":32.1204,"location":"32.1204,34.7924","longitude":34.7924,"name":"רודנסקי מרכז מסחרי","sid":"106","address":"רודנסקי 3 - מרכז מסחרי","name_en":"Rudensky-Ramat Aviv 3","address_en":"3 Rudensky-Ramat Aviv"},{"available_bike":"1","available_spaces":"19","city":"tlv","last_update":"2012-11-12 11:08:11.680","latitude":32.1214,"location":"32.1214,34.7832","longitude":34.7832,"name":"חוף תל ברוך","sid":"107","address":"ארצי יצחק 34 -חוף תל ברוך -צמוד לתחנת שאיבה בגינה צפונית לכניסה ראשית","name_en":"Tel Baruch beach","address_en":"Tel Baruch beach"},{"available_bike":"6","available_spaces":"14","city":"tlv","last_update":"2012-11-12 11:08:11.680","latitude":32.1141,"location":"32.1141,34.7916","longitude":34.7916,"name":"פרלוק 4","sid":"108","address":"פרלוק 4","name_en":"4 Perluk St.","address_en":"4 Perluk St."},{"available_bike":"10","available_spaces":"10","city":"tlv","last_update":"2012-11-12 11:08:11.680","latitude":32.1177,"location":"32.1177,34.798","longitude":34.798,"name":"טאגור מרכז מסחרי","sid":"109","address":"טאגור מרכז מסחרי","name_en":"Tagore St. – commercial center","address_en":"Tagore St. – commercial center"},{"available_bike":"4","available_spaces":"16","city":"tlv","last_update":"2012-11-12 11:08:11.680","latitude":32.1103,"location":"32.1103,34.7905","longitude":34.7905,"name":"שיכון למד האוזנר 5","sid":"110","address":"שיכון למד האוזנר 5","name_en":"Shikun Lamed – 5 Hausner St.","address_en":"Shikun Lamed – 5 Hausner St."},{"available_bike":"8","available_spaces":"12","city":"tlv","last_update":"2012-11-12 11:08:11.680","latitude":32.1129,"location":"32.1129,34.7968","longitude":34.7968,"name":"איינשטיין 41","sid":"111","address":"איינשטיין 41 קניון רמת אביב","name_en":"41 Einstein St.","address_en":"41 Einstein St."},{"available_bike":"15","available_spaces":"9","city":"tlv","last_update":"2012-11-12 11:08:11.680","latitude":32.1133,"location":"32.1133,34.8008","longitude":34.8008,"name":"אוניברסיטה איינשטיין 78","sid":"112","address":"איינשטיין 78","name_en":"78 Einstein St.","address_en":"78 Einstein St."},{"available_bike":"1","available_spaces":"19","city":"tlv","last_update":"2012-11-12 11:08:11.680","latitude":32.1077,"location":"32.1077,34.7981","longitude":34.7981,"name":"ברודצקי פינת שד אבנר","sid":"113","address":"ברודצקי פינת שד אבנר","name_en":"Brodetzky St./ Mayer Ebner","address_en":"Brodetzky St./ Mayer Ebner"},{"available_bike":"8","available_spaces":"12","city":"tlv","last_update":"2012-11-12 11:08:11.680","latitude":32.1048,"location":"32.1048,34.7891","longitude":34.7891,"name":"לוי אשכול 26","sid":"114","address":" לוי אשכול 26 פינת אפטר -   במדרכה ד. מזרחית בין העצים","name_en":"26 Levi Eshkol St. - Sde Dov Airport","address_en":"26 Levi Eshkol St. - Sde Dov Airport"},{"available_bike":"5","available_spaces":"13","city":"tlv","last_update":"2012-11-12 11:08:11.680","latitude":32.1022,"location":"32.1022,34.7854","longitude":34.7854,"name":"שי עגנון 59","sid":"116","address":"שי עגנון 59 פינת ישראל גלילי -בגינה מזרחית לכניסה לשכונה","name_en":"59 Agnon St./ Israel Galili St.","address_en":"59 Agnon St./ Israel Galili St."},{"available_bike":"11","available_spaces":"9","city":"tlv","last_update":"2012-11-12 11:08:11.680","latitude":32.1017,"location":"32.1017,34.7929","longitude":34.7929,"name":"דרך נמיר - סמינר הקיבוצים","sid":"117","address":" סמינר הקיבוצים - דרך נמיר מימין  לרחוב ויטלה בחורשה ","name_en":"Derekh Namir - Seminar Ha-Kibutsim","address_en":"Seminar Ha-Kibutsim - Derekh Namir to the right of Vitale in the bushes"},{"available_bike":"4","available_spaces":"16","city":"tlv","last_update":"2012-11-12 11:08:11.680","latitude":32.1259,"location":"32.1259,34.7985","longitude":34.7985,"name":"שלמה בן יוסף 24","sid":"118","address":"שלמה בן יוסף 24","name_en":"24  Shlomo Ben-Yosef St.","address_en":"24  Shlomo Ben-Yosef St."},{"available_bike":"5","available_spaces":"15","city":"tlv","last_update":"2012-11-12 11:08:11.680","latitude":32.1156,"location":"32.1156,34.7886","longitude":34.7886,"name":"הגוש הגדול אמיר גלבע 17","sid":"120","address":"אמיר גלבוע 17","name_en":"17 Amir Gilboa st.","address_en":"17 Amir Gilboa st."},{"available_bike":"8","available_spaces":"11","city":"tlv","last_update":"2012-11-12 11:08:11.680","latitude":32.1207,"location":"32.1207,34.7993","longitude":34.7993,"name":"רב אשי 11 מרכז מסחרי","sid":"121","address":"רב אשי בגינה מול בית 11","name_en":"11 Rav Ashi st.","address_en":"11 Rav Ashi st."},{"available_bike":"8","available_spaces":"12","city":"tlv","last_update":"2012-11-12 11:08:11.680","latitude":32.1107,"location":"32.1107,34.8036","longitude":34.8036,"name":"אוניברסיטה שער 4","sid":"122","address":"אוניברסיטה שער 4","name_en":"University - Gate 4","address_en":"University - Gate 4"},{"available_bike":"10","available_spaces":"10","city":"tlv","last_update":"2012-11-12 11:08:11.680","latitude":32.1151,"location":"32.1151,34.8031","longitude":34.8031,"name":"האוניברסיטה - ספריה","sid":"123","address":"האוניברסיטה - ספריה","name_en":"University - Library","address_en":"University - Library"},{"available_bike":"5","available_spaces":"15","city":"tlv","last_update":"2012-11-12 11:08:11.680","latitude":32.1263,"location":"32.1263,34.8278","longitude":34.8278,"name":"המשתלה ברוד מקס 12","sid":"201","address":"המשתלה ברוד מקס 12","name_en":"The Plant Nursery – 12 Max Brod St.","address_en":"The Plant Nursery – 12 Max Brod St."},{"available_bike":"1","available_spaces":"19","city":"tlv","last_update":"2012-11-12 11:08:11.680","latitude":32.1223,"location":"32.1223,34.8179","longitude":34.8179,"name":"אהרון בקר 15","sid":"202","address":"אהרון בקר 15","name_en":"15 Beker Aharon St.","address_en":"15 Beker Aharon St."},{"available_bike":"6","available_spaces":"14","city":"tlv","last_update":"2012-11-12 11:08:11.680","latitude":32.1202,"location":"32.1202,34.8214","longitude":34.8214,"name":"לאה 16 פינת אלתרמן","sid":"203","address":"לאה 16 פינת אלתרמן","name_en":"16 Lea St./ Alterman St.","address_en":"16 Lea St./ Alterman St."},{"available_bike":"5","available_spaces":"15","city":"tlv","last_update":"2012-11-12 11:08:11.680","latitude":32.1218,"location":"32.1218,34.8258","longitude":34.8258,"name":"צהל פינת עיר שמש בכיכר","sid":"204","address":"צהל פינת עיר שמש בכיכר","name_en":"Tsahal St./ Ir Shemesh St.","address_en":"Tsahal St./ Ir Shemesh St."},{"available_bike":"7","available_spaces":"13","city":"tlv","last_update":"2012-11-12 11:08:11.680","latitude":32.1214,"location":"32.1214,34.8349","longitude":34.8349,"name":"צה\"ל מול בית 76","sid":"205","address":"צה\"ל מול בית 76","name_en":"Opp. 76 Tsahal St.","address_en":"Opp. 76 Tsahal St."},{"available_bike":"6","available_spaces":"14","city":"tlv","last_update":"2012-11-12 11:08:11.680","latitude":32.118,"location":"32.118,34.8395","longitude":34.8395,"name":"נווה שרת הצנחנים 2","sid":"206","address":"נווה שרת הצנחנים 2","name_en":"Neve Sharett – 2 HaTzanchanim St.","address_en":"Neve Sharett – 2 HaTzanchanim St."},{"available_bike":"8","available_spaces":"12","city":"tlv","last_update":"2012-11-12 11:08:11.680","latitude":32.1142,"location":"32.1142,34.8189","longitude":34.8189,"name":"קהילת קיוב 3 - המכללה להנדסאים","sid":"207","address":"מכללת תל אביב להנדסאים -קהילת קייב מול בית מס 6 במדרכה","name_en":"3 Kehillat Kiov St. – College of Practical Engineering","address_en":"3 Kehillat Kiev St. – College of Practical Engineering"},{"available_bike":"4","available_spaces":"16","city":"tlv","last_update":"2012-11-12 11:08:11.680","latitude":32.1137,"location":"32.1137,34.8252","longitude":34.8252,"name":"מול פנחס רוזן 62","sid":"208","address":"מול פנחס רוזן 62","name_en":"Opp. 62 Pinchas Rosen St.","address_en":"Opp. 62 Pinchas Rosen St."},{"available_bike":"1","available_spaces":"19","city":"tlv","last_update":"2012-11-12 11:08:11.680","latitude":32.1144,"location":"32.1144,34.8414","longitude":34.8414,"name":"עתידים -דבורה הנביאה","sid":"209","address":"עתידים -דבורה הנביאה","name_en":"Raoul Valenberg St./ Dvorah HaNeva St.- Atidim","address_en":"Raoul Valenberg St./ Dvorah HaNevia St.- Atidim"},{"available_bike":"10","available_spaces":"10","city":"tlv","last_update":"2012-11-12 11:08:11.680","latitude":32.1099,"location":"32.1099,34.8189","longitude":34.8189,"name":"הדר יוסף - מרכז מסחרי","sid":"210","address":" הדר יוסף 7 מרכז מסחרי- בגינה מימין לשביל ,נדרש משטח","name_en":"Hadar Yosef – commercial center","address_en":"Hadar Yosef – commercial center"},{"available_bike":"9","available_spaces":"11","city":"tlv","last_update":"2012-11-12 11:08:11.680","latitude":32.1091,"location":"32.1091,34.8394","longitude":34.8394,"name":"אסותא הברזל 23","sid":"211","address":"אסותא הברזל 23","name_en":"Assuta – 23 HaBarzel St.","address_en":"Assuta – 23 HaBarzel St."},{"available_bike":"1","available_spaces":"17","city":"tlv","last_update":"2012-11-12 11:08:11.680","latitude":32.1101,"location":"32.1101,34.8324","longitude":34.8324,"name":"הרוגי המלכות 6","sid":"212","address":"הרוגי המלכות 6","name_en":"6 Harugey Malkhot St.","address_en":"6 Harugey Malkhot St."},{"available_bike":"8","available_spaces":"12","city":"tlv","last_update":"2012-11-12 11:08:11.680","latitude":32.1069,"location":"32.1069,34.8211","longitude":34.8211,"name":"שלום אש מרכז מסחרי","sid":"213","address":"שלום אש מול בית 14 ","name_en":"","address_en":""},{"available_bike":"4","available_spaces":"16","city":"tlv","last_update":"2012-11-12 11:08:11.680","latitude":32.1176,"location":"32.1176,34.8132","longitude":34.8132,"name":"תל ברוך ביהס אלחריזי","sid":"214","address":"תל ברוך ביהס אלחריזי","name_en":"Tel Baruch – Alharizi School","address_en":"Tel Baruch – Alharizi School"},{"available_bike":"1","available_spaces":"19","city":"tlv","last_update":"2012-11-12 11:08:11.680","latitude":32.1042,"location":"32.1042,34.8094","longitude":34.8094,"name":"רוקח מרכז הירידים","sid":"215","address":"רוקח מרכז הירידים","name_en":"Trade Fairs Center","address_en":"Trade Fairs Center"},{"available_bike":"7","available_spaces":"13","city":"tlv","last_update":"2012-11-12 11:08:11.680","latitude":32.1032,"location":"32.1032,34.8051","longitude":34.8051,"name":"תחנת רכבת אונברסיטה","sid":"216","address":" תחנת רכבת אונברסיטה - במדרכה  צמוד לקיר בצד הדרומי של*","name_en":"University Railway Station","address_en":"University Railway Station"},{"available_bike":"3","available_spaces":"11","city":"tlv","last_update":"2012-11-12 11:08:11.680","latitude":32.1173,"location":"32.1173,34.8247","longitude":34.8247,"name":"גבעת הפרחים","sid":"217","address":"מרסל ינקו 7-גבעת הפרחים","name_en":"7 Marcel Yanko St.","address_en":"7 Marsel Yanko"},{"available_bike":"9","available_spaces":"11","city":"tlv","last_update":"2012-11-12 11:08:11.680","latitude":32.1067,"location":"32.1067,34.8326","longitude":34.8326,"name":"ראול ולנברג פינת הברזל","sid":"218","address":"ראול ולנברג פינת הברזל","name_en":"Raoul Wallenberg St./ HaBarzel St.","address_en":"Raoul Wallenberg St., corner of HaBarzel St."},{"available_bike":"6","available_spaces":"14","city":"tlv","last_update":"2012-11-12 11:08:11.680","latitude":32.1136,"location":"32.1136,34.8326","longitude":34.8326,"name":"שיכון דן משמר הירדן 79","sid":"219","address":"שיכון דן משמר הירדן 79","name_en":"Shikun Dan – 79 Mishmar HaYarden St.","address_en":"Shikun Dan – 79 Mishmeret HaYarden St."},{"available_bike":"10","available_spaces":"7","city":"tlv","last_update":"2012-11-12 11:08:11.680","latitude":32.1122,"location":"32.1122,34.8151","longitude":34.8151,"name":"קדש ברנע מול בית 9","sid":"220","address":"קדש ברנע מול בית 9","name_en":"Opp. 9 Kadesh Barnea St.","address_en":"Opp. 9 Kadesh Barnea St."},{"available_bike":"7","available_spaces":"13","city":"tlv","last_update":"2012-11-12 11:08:11.680","latitude":32.101,"location":"32.101,34.7753","longitude":34.7753,"name":"נמל תל אביב כיכר שלוותה","sid":"301","address":"נמל תל אביב כיכר שלוותה","name_en":"Namel Tel Aviv - Shalvata","address_en":"Namel Tel Aviv - Shalvata"},{"available_bike":"6","available_spaces":"11","city":"tlv","last_update":"2012-11-12 11:08:11.680","latitude":32.0971,"location":"32.0971,34.776","longitude":34.776,"name":"דיזנגוף 342","sid":"302","address":"דיזנגוף 342 במדרכה","name_en":"342 Meir Dizengoff St.","address_en":"342 Meir Dizengoff St."},{"available_bike":"1","available_spaces":"16","city":"tlv","last_update":"2012-11-12 11:08:11.680","latitude":32.096,"location":"32.096,34.7772","longitude":34.7772,"name":"אוסישקין 48","sid":"303","address":"אושיסקין 46-48 בכביש","name_en":"48 Ussishkin St.","address_en":"Usishkin 46-48 on the road"},{"available_bike":"8","available_spaces":"12","city":"tlv","last_update":"2012-11-12 11:08:11.680","latitude":32.099,"location":"32.099,34.7813","longitude":34.7813,"name":"שדרות רוקח-חניון רידינג","sid":"304","address":"רוקח-חניון בית ההלוויות העירוני -כניסה לחניון צד ימין בדשא","name_en":"Rokach Yisrael - Reeding Parking Lot","address_en":"Rokakh - Municipal Funeral Home parking lot - right entrance to the parking lot on the grass"},{"available_bike":"2","available_spaces":"18","city":"tlv","last_update":"2012-11-12 11:08:11.680","latitude":32.0988,"location":"32.0988,34.789","longitude":34.789,"name":"שדרות רוקח - ספורטק","sid":"305","address":"ספורטק בגינה 100 מטר מז לתחנת אוטובוס","name_en":"Rokach Yisrael - Sportek","address_en":"Sportek lawn 100 meters east of the bus stop"},{"available_bike":"7","available_spaces":"13","city":"tlv","last_update":"2012-11-12 11:08:11.680","latitude":32.0877,"location":"32.0877,34.7968","longitude":34.7968,"name":"אלוני ניסים 8","sid":"306","address":"אלוני ניסים 8 בגינה סמוך למרכז המסחרי","name_en":"8 Nisim Aloni St.","address_en":"Nissim Aloni 8 in the garden by the commercial center"},{"available_bike":"11","available_spaces":"9","city":"tlv","last_update":"2012-11-12 11:08:11.680","latitude":32.0962,"location":"32.0962,34.7907","longitude":34.7907,"name":"בני דן 56- גני יהושוע","sid":"307","address":"בני דן 56 בגינה","name_en":"56 Bnei Dan St.","address_en":"Bnei Dan 56 in the garden"},{"available_bike":"8","available_spaces":"12","city":"tlv","last_update":"2012-11-12 11:08:11.680","latitude":32.0979,"location":"32.0979,34.797","longitude":34.797,"name":"קוסובסקי 34 -גני יהושוע","sid":"308","address":"קוסובסקי 34 -32 ממול בפארק יהושוע","name_en":"34 Kosowski St.","address_en":"Opposite Kosowski 32-34 in Ganei Yehoshua"},{"available_bike":"8","available_spaces":"12","city":"tlv","last_update":"2012-11-12 11:08:11.680","latitude":32.0942,"location":"32.0942,34.793","longitude":34.793,"name":"יהודה מכבי 81","sid":"309","address":"יהודה מכבי 79-81 במדרכה","name_en":"81 Yehuda Hamakabi St.","address_en":"Yehuda ha-Maccabi 79-81 on the sidewalk"},{"available_bike":"0","available_spaces":"20","city":"tlv","last_update":"2012-11-12 11:08:11.680","latitude":32.0936,"location":"32.0936,34.7872","longitude":34.7872,"name":"ברנדיס 20","sid":"310","address":"ברנדיס 20 בכביש מפרץ חניה","name_en":"20 Brandeis St.","address_en":"Brandeis 20 in the parking bay"},{"available_bike":"6","available_spaces":"10","city":"tlv","last_update":"2012-11-12 11:08:11.680","latitude":32.0937,"location":"32.0937,34.7835","longitude":34.7835,"name":"אבן גבירול 182","sid":"311","address":"אבן גבירול 180-182 במדרכה","name_en":"182 Ibn Gvirol St.","address_en":"Ibn Gabirol 180-182 on the sidewalk"},{"available_bike":"5","available_spaces":"15","city":"tlv","last_update":"2012-11-12 11:08:11.680","latitude":32.0949,"location":"32.0949,34.7726","longitude":34.7726,"name":"הנמל 12-מציצים","sid":"312","address":"נמל תל אביב 12 במדרכה חוף מציצים","name_en":"12 Namel Tel Aviv - Metzitzim Beach","address_en":"Nemal Tel Aviv 12 on the sidewalk at khof Metsitsim"},{"available_bike":"7","available_spaces":"13","city":"tlv","last_update":"2012-11-12 11:08:11.680","latitude":32.0926,"location":"32.0926,34.7765","longitude":34.7765,"name":"דיזנגוף 280","sid":"313","address":"דיזנגוף 280 במדרכה","name_en":"280 Meir Dizengoff St.","address_en":"Diezengoff 280 on the sidewalk"},{"available_bike":"3","available_spaces":"17","city":"tlv","last_update":"2012-11-12 11:08:11.680","latitude":32.0918,"location":"32.0918,34.7827","longitude":34.7827,"name":"נורדאו 101בשדרה","sid":"314","address":"נורדאו 99-101 פינת אבן גבירול בשדרה ","name_en":"101 Nordau St.","address_en":"Nordau 99-101 corner of Ibn Gabirol"},{"available_bike":"7","available_spaces":"10","city":"tlv","last_update":"2012-11-12 11:08:11.680","latitude":32.0914,"location":"32.0914,34.7867","longitude":34.7867,"name":"דה האז 30","sid":"315","address":"דה האז 30 במדרכה","name_en":"30 De Haas St.","address_en":"De Haas 30 on the sidewalk"},{"available_bike":"5","available_spaces":"14","city":"tlv","last_update":"2012-11-12 11:08:11.680","latitude":32.0903,"location":"32.0903,34.7904","longitude":34.7904,"name":"ויצמן 60 - בית החייל","sid":"316","address":"ויצמן 60 במדרכה","name_en":"60 Weizman St. - Beit Ha-Khyal","address_en":"Weizman 60 on the sidewalk"},{"available_bike":"2","available_spaces":"18","city":"tlv","last_update":"2012-11-12 11:08:11.680","latitude":32.0913,"location":"32.0913,34.7943","longitude":34.7943,"name":"פנקס  69","sid":"317","address":"פנקס  69 במדרכה פינת נמיר","name_en":"69 Pinkas St.","address_en":"Pinkas 69 corner of Namir"},{"available_bike":"11","available_spaces":"9","city":"tlv","last_update":"2012-11-12 11:08:11.680","latitude":32.0892,"location":"32.0892,34.7737","longitude":34.7737,"name":"בן יהודה 192","sid":"318","address":"בן יהודה 192 במדרכה פינת זבוטינסקי","name_en":"192 Ben Yehuda St.","address_en":"Ben Yehuda 192 on the sidewalk, corner of Jabotinsky"},{"available_bike":"3","available_spaces":"17","city":"tlv","last_update":"2012-11-12 11:08:11.680","latitude":32.0871,"location":"32.0871,34.7822","longitude":34.7822,"name":"אבן גבירול 124","sid":"319","address":"אבן גבירול 124 במדרכה","name_en":"124 Ibn Gvirol St.","address_en":"Ibn Gabirol 124 on the sidewalk"},{"available_bike":"10","available_spaces":"10","city":"tlv","last_update":"2012-11-12 11:08:11.680","latitude":32.0901,"location":"32.0901,34.7791","longitude":34.7791,"name":"מתחם בזל - השל\"ה 1","sid":"320","address":"השלה 1 במדרכה","name_en":"Bazel area - 1 Hashla","address_en":"Ha-Shla 1 on the sidewalk"},{"available_bike":"6","available_spaces":"14","city":"tlv","last_update":"2012-11-12 11:08:11.680","latitude":32.0867,"location":"32.0867,34.7884","longitude":34.7884,"name":"ה באייר 2- כיכר המדינה","sid":"321","address":"מול ה באייר 2 פינת זבוטינסקי בכיכר סמוך לשפת הכביש","name_en":"2 Heh be-iyar St. - Ha-Medina Square","address_en":"Hei be-Iyar 2 corner of Jabotinsky along the roadside"},{"available_bike":"9","available_spaces":"11","city":"tlv","last_update":"2012-11-12 11:08:11.680","latitude":32.0865,"location":"32.0865,34.7926","longitude":34.7926,"name":"שדרות הציונות 1 ","sid":"322","address":"שדרות הציונות 1 ","name_en":" 1 Tsiyonut Av","address_en":" 1 Tsiyonut Av"},{"available_bike":"4","available_spaces":"16","city":"tlv","last_update":"2012-11-12 11:08:11.680","latitude":32.0847,"location":"32.0847,34.7867","longitude":34.7867,"name":"תשח 2","sid":"323","address":"תשח 2 במדרכה","name_en":"2 Tashah St.","address_en":"Tashakh 2 on the sidewalk"},{"available_bike":"6","available_spaces":"11","city":"tlv","last_update":"2012-11-12 11:08:11.680","latitude":32.0843,"location":"32.0843,34.7816","longitude":34.7816,"name":"אבן גבירול 106 -בית הדואר","sid":"324","address":"אבן גבירול 106 - בית הדואר במדרכה","name_en":"106 Ibn Gvirol St. - Post Office","address_en":"Ibn Gabirol 106 - Post Office, on the sidewalk"},{"available_bike":"13","available_spaces":"7","city":"tlv","last_update":"2012-11-12 11:08:11.680","latitude":32.0836,"location":"32.0836,34.7917","longitude":34.7917,"name":"הלסינקי 3","sid":"325","address":"הלסינקי 3 במפרץ חניה","name_en":"3 Helsinki St.","address_en":"Helsinki 3 in the parking bay"},{"available_bike":"7","available_spaces":"22","city":"tlv","last_update":"2012-11-12 11:08:11.680","latitude":32.0836,"location":"32.0836,34.7968","longitude":34.7968,"name":"תחנת רכבת סבידור","sid":"326","address":"תחנת רכבת סבידור - מערבית לשער יציאה (קרוסלה) במדרכה","name_en":"Savidor Train Station Center","address_en":"Savidor Railway Station - west of the exit gate (carousel) on the sidewalk"},{"available_bike":"3","available_spaces":"16","city":"tlv","last_update":"2012-11-12 11:08:11.680","latitude":32.095,"location":"32.095,34.7971","longitude":34.7971,"name":"בבלי פעמוני 2","sid":"328","address":"שכונת בבלי - פעמוני 2 בכביש מפרץ חניה","name_en":"2 Paamony St. - Bavli","address_en":"Bavli -  Paamoni 2 on the road in the parking bay"},{"available_bike":"3","available_spaces":"17","city":"tlv","last_update":"2012-11-12 11:08:11.680","latitude":32.0866,"location":"32.0866,34.7694","longitude":34.7694,"name":"מלון קרלטון בטיילת","sid":"329","address":"טיילת צמוד למרפסת צפונית מלון קרלטון ","name_en":"Carlton Hotel - Tayelet","address_en":"Tayelet next to the northern balcony of Carlton Hotel"},{"available_bike":"5","available_spaces":"23","city":"tlv","last_update":"2012-11-12 11:08:11.680","latitude":32.083,"location":"32.083,34.777","longitude":34.777,"name":"שדרות בן גוריון 68","sid":"330","address":"שדרות בן גוריון 68 במרכז הגינה בחול צמוד לשביל אופניים","name_en":"68 Ben Gurion Av.","address_en":"Shderot Ben Gurion 68 in the middle of the garden in the sand next to the bicycle path"},{"available_bike":"10","available_spaces":"18","city":"tlv","last_update":"2012-11-12 11:08:11.680","latitude":32.081,"location":"32.081,34.7811","longitude":34.7811,"name":"כיכר רבין","sid":"331","address":"כיכר רבין  מול אבן גבירול 76 -תחנה עירייה","name_en":"Rabin Square","address_en":"Kikar Rabin, opposite Ibn Gabirol 76 - municipality station"},{"available_bike":"8","available_spaces":"12","city":"tlv","last_update":"2012-11-12 11:08:11.680","latitude":32.08,"location":"32.08,34.7854","longitude":34.7854,"name":"דוד המלך 30","sid":"332","address":"דוד המלך 30 מול הרבנות בשדרה","name_en":"30 David Hamellech St.","address_en":"David ha-Melekh 30 opposite the Rabbinate"},{"available_bike":"4","available_spaces":"16","city":"tlv","last_update":"2012-11-12 11:08:11.680","latitude":32.0811,"location":"32.0811,34.7888","longitude":34.7888,"name":"ויצמן 15-איכילוב","sid":"333","address":"ויצמן 15 איכילוב במדרכה מול בית החולים","name_en":"15 weizman st. Ichilov Hospital","address_en":"Weizman 11 - Hospital"},{"available_bike":"0","available_spaces":"20","city":"tlv","last_update":"2012-11-12 11:08:11.680","latitude":32.0815,"location":"32.0815,34.7706","longitude":34.7706,"name":"בן יהודה 86","sid":"334","address":"בן יהודה 86   במדרכה ","name_en":"86 Ben Yehuda St.","address_en":"Ben Yehuda 86 on the sidewalk"},{"available_bike":"6","available_spaces":"14","city":"tlv","last_update":"2012-11-12 11:08:11.680","latitude":32.0814,"location":"32.0814,34.7737","longitude":34.7737,"name":"דיזנגוף 126","sid":"335","address":"דיזנגוף 126 פינת גורדון במדרכה צמוד לכביש ","name_en":"126 Meir Dizengoff St.","address_en":"Diezengoff 126 corner of Gordon on the sidwalk by the road"},{"available_bike":"0","available_spaces":"20","city":"tlv","last_update":"2012-11-12 11:08:11.680","latitude":32.0841,"location":"32.0841,34.775","longitude":34.775,"name":"בן גוריון 55 -בשדרה","sid":"336","address":"בן גוריון 55 פינת דיזנגוף במרכז השדרה  צמוד לשביל אופניים","name_en":"55 Ben Gurion Av.","address_en":"Shderot Ben Gurion 55 corner of Diezengoff, in the avenue by the bicycle path"},{"available_bike":"3","available_spaces":"15","city":"tlv","last_update":"2012-11-12 11:08:11.680","latitude":32.0863,"location":"32.0863,34.7774","longitude":34.7774,"name":"ארלוזורוב 62","sid":"337","address":"ארלוזורוב 62 במדרכה","name_en":"62 Arlozorov St.","address_en":"Arlozorov 62 on the sidewalk"},{"available_bike":"4","available_spaces":"16","city":"tlv","last_update":"2012-11-12 11:08:11.680","latitude":32.0774,"location":"32.0774,34.7664","longitude":34.7664,"name":"הרברט סמואל 90","sid":"341","address":"הרברט סמואל 90 (ממול )בטילת צמוד לחומה ","name_en":"90 Herbert Samuel St.","address_en":"Herbert Samuel 90 (opposite) on the boardwalk by the wall"},{"available_bike":"11","available_spaces":"9","city":"tlv","last_update":"2012-11-12 11:08:11.680","latitude":32.0759,"location":"32.0759,34.7851","longitude":34.7851,"name":"שאול המלך 21 קאמרי","sid":"342","address":"שאול המלך 21 קאמרי -במדרכה מימין למדרגות כניסה מערבית","name_en":"21 Sauol Hamelekh- Hakameri","address_en":"Shaul ha-Melekh 21 Hakameri - on the sidewalk to the right of the west entrance stairs"},{"available_bike":"3","available_spaces":"20","city":"tlv","last_update":"2012-11-12 11:08:11.680","latitude":32.0782,"location":"32.0782,34.7745","longitude":34.7745,"name":"ככר דיזינגוף ","sid":"343","address":"ריינס 2 - כיכר דיזנגוף במדרכה","name_en":"2 Reiness St. - Dizengoff Square","address_en":"Reines 2 - Kikar Diezengoff on the sidewalk"},{"available_bike":"5","available_spaces":"15","city":"tlv","last_update":"2012-11-12 11:08:11.680","latitude":32.0779,"location":"32.0779,34.7783","longitude":34.7783,"name":"נצח ישראל 4 פינת מסריק","sid":"344","address":"נצח ישראל 4 פינת מסריק - תחנה בחניה בכביש ","name_en":"4 Netsakh Yisrael St./ Masaryk","address_en":"Netsakh Yisrael 4 corner of Masaryk - station at the roadside parking"},{"available_bike":"9","available_spaces":"11","city":"tlv","last_update":"2012-11-12 11:08:11.680","latitude":32.0772,"location":"32.0772,34.7884","longitude":34.7884,"name":"ויצמן 1 -  בית המשפט","sid":"345","address":"ויצמן 1 בית המשפט","name_en":"1 Weizman St. - Court Justice Hall","address_en":"Weizman 1 - Court Justice Hall"},{"available_bike":"2","available_spaces":"18","city":"tlv","last_update":"2012-11-12 11:08:11.680","latitude":32.075,"location":"32.075,34.7818","longitude":34.7818,"name":"אבן גבירול 28","sid":"346","address":"אבן גבירול 28 לונדון מיניסטור מאחורי ספסל ארוך דרום לכניסה","name_en":"28 Ibn Gabirol St.","address_en":"Ibn Gabirol 28, London Ministore behind the long bench south of the entrance"},{"available_bike":"6","available_spaces":"13","city":"tlv","last_update":"2012-11-12 11:08:11.680","latitude":32.076,"location":"32.076,34.7718","longitude":34.7718,"name":"בוגרשוב 45 פינת פינסקר","sid":"347","address":"בוגרשוב 46-45 פינת פינסקר במדרכה ","name_en":"Bograshov 45/ Pinsker st.","address_en":"Bograshov 45 corner of Pinsker on the sidewalk"},{"available_bike":"8","available_spaces":"12","city":"tlv","last_update":"2012-11-12 11:08:11.680","latitude":32.074,"location":"32.074,34.7756","longitude":34.7756,"name":"שדרות בן ציון  1","sid":"348","address":"שדרות בן ציון  1 במדרכה בין העצים","name_en":"1 Shderot Ben Tsiyon St.","address_en":"Shderot Ben Tsiyon 1 on the sidewalk between the trees"},{"available_bike":"2","available_spaces":"18","city":"tlv","last_update":"2012-11-12 11:08:11.680","latitude":32.073,"location":"32.073,34.7682","longitude":34.7682,"name":"בן יהודה 1","sid":"354","address":"בן יהודה 1 במדרכה כיכר מוגרבי","name_en":"1 Ben Yehuda St.","address_en":"Ben Yehuda 1 on the sidewalk Kikar Mugraby "},{"available_bike":"1","available_spaces":"19","city":"tlv","last_update":"2012-11-12 11:08:11.680","latitude":32.071,"location":"32.071,34.7641","longitude":34.7641,"name":"הרברט סמואל 32","sid":"355","address":"הרברט סמואל 32 בטיילת חוף הבננה ביץ","name_en":"32 Herbert Samuel St.","address_en":"Samuel 32 on the boardwalk at Banana Beach"},{"available_bike":"10","available_spaces":"18","city":"tlv","last_update":"2012-11-12 11:08:11.680","latitude":32.0718,"location":"32.0718,34.779","longitude":34.779,"name":"רוטשילד 140","sid":"357","address":"רוטשילד 140 בשדרה פינת מרמורק  (כיכר הבימה) ","name_en":"140 Rothshild Av. - Habima","address_en":"Rothschild 140 on the avenue corner of Marmorek (Kikar Habima)"},{"available_bike":"6","available_spaces":"13","city":"tlv","last_update":"2012-11-12 11:08:11.680","latitude":32.0707,"location":"32.0707,34.7826","longitude":34.7826,"name":"שפרינצק 1 - סינימטק","sid":"358","address":"סינימטק מול שפרינצק 1 במדרכה","name_en":"1 Shprintsak St. - Cinematek","address_en":"Cinematek opposite Shprintsak 1 on the sidewalk"},{"available_bike":"4","available_spaces":"16","city":"tlv","last_update":"2012-11-12 11:08:11.680","latitude":32.0732,"location":"32.0732,34.7857","longitude":34.7857,"name":"קפלן פינת ארניה","sid":"359","address":"קפלן פינת ארניה קריה מול שער רבין","name_en":"Kaplan St./ Aaranha St.","address_en":"Kaplan corner of Aaranha opposite Shaar Rabin"},{"available_bike":"12","available_spaces":"8","city":"tlv","last_update":"2012-11-12 11:08:11.680","latitude":32.0701,"location":"32.0701,34.7901","longitude":34.7901,"name":"שד יהודית 11 פינת הנציב","sid":"360","address":"שדרות יהודית מול 16 בגינה","name_en":"11 Sderot Yehudit /Ha-Nanatsiv St.","address_en":"Shderot Yehudit opposite 16 in the garden"},{"available_bike":"3","available_spaces":"17","city":"tlv","last_update":"2012-11-12 11:08:11.680","latitude":32.0695,"location":"32.0695,34.7707","longitude":34.7707,"name":"אלנבי 53 שוק הכרמל","sid":"361","address":"אלנבי 53 שוק הכרמל, כיכר מגן דוד","name_en":"53 Allenby St. - Carmel Market","address_en":"Alenbi 53, Shuk ha-Carmet Market, Kikar Magen David"},{"available_bike":"7","available_spaces":"13","city":"tlv","last_update":"2012-11-12 11:08:11.680","latitude":32.0685,"location":"32.0685,34.7783","longitude":34.7783,"name":"רוטשילד 108","sid":"362","address":"רוטשילד 108 בשדרה פינת נחמני","name_en":"108 Rothshild Av. ","address_en":"Rothschild 108 in the avenue corner of Nakhmani"},{"available_bike":"6","available_spaces":"14","city":"tlv","last_update":"2012-11-12 11:08:11.680","latitude":32.0657,"location":"32.0657,34.7831","longitude":34.7831,"name":"בית רובינשטיין-צ. מעריב","sid":"363","address":"בית רובינשטיין במדרכה סמוך לשפת הכביש ","name_en":"Begin/ Lincoln -Biet Rubinshtein","address_en":"Biet Rubinshtein on the sidewalk by the roadside"},{"available_bike":"0","available_spaces":"20","city":"tlv","last_update":"2012-11-12 11:08:11.680","latitude":32.0696,"location":"32.0696,34.7725","longitude":34.7725,"name":"גינת שינקין-י נפחא מול 1","sid":"364","address":"שינקין  יצחק נפחא מול בית 1","name_en":"Sheinkin  garden","address_en":"Sheinkin St. – Nafha St. – in the garden"},{"available_bike":"10","available_spaces":"10","city":"tlv","last_update":"2012-11-12 11:08:11.680","latitude":32.0654,"location":"32.0654,34.7858","longitude":34.7858,"name":"יצחק שדה 17 - ביטוח לאומי","sid":"365","address":"מול יצחק שדה 17 ביטוח לאומי (המסגר) במדרכה","name_en":"17 Yitskhak Sadeh St. ","address_en":"Opposite Yitskhak Sadeh 17, Bituach Leumi (Ha-Masger) on the sidewalk"},{"available_bike":"7","available_spaces":"13","city":"tlv","last_update":"2012-11-12 11:08:11.680","latitude":32.0665,"location":"32.0665,34.7662","longitude":34.7662,"name":"כרמלית פינת הכרמל","sid":"366","address":"כרמלית פינת הכרמל בגינה","name_en":"Carmelit/ Ha-Carmel Market","address_en":"Carmelit corner of Ha-Carmel in the garden"},{"available_bike":"10","available_spaces":"10","city":"tlv","last_update":"2012-11-12 11:08:11.680","latitude":32.0635,"location":"32.0635,34.7617","longitude":34.7617,"name":"קויפמן 2 -  תחנת הדלק","sid":"367","address":"מול קויפמן 2 במדרכה צמוד לתחנת הדלק ","name_en":"Opp. 2 Koifman St. - Gas Station","address_en":"Koifman 2 on the sidewalk by the Gas Station"},{"available_bike":"1","available_spaces":"19","city":"tlv","last_update":"2012-11-12 11:08:11.680","latitude":32.0669,"location":"32.0669,34.7716","longitude":34.7716,"name":"אלנבי 90 פינת מאזה","sid":"368","address":"אלנבי 88-90 פינת גרוזנברג במדרכה בין העצים  ","name_en":"90 Allenby St./ Maze St.","address_en":"Allenby 88-90 corner of Gruzenberg on the sidewalk between the trees"},{"available_bike":"9","available_spaces":"19","city":"tlv","last_update":"2012-11-12 11:08:11.680","latitude":32.0631,"location":"32.0631,34.7709","longitude":34.7709,"name":"רוטשילד 11 פינת הרצל","sid":"369","address":"רוטשילד 11 פינת הרצל בשדרה בין העצים ","name_en":"11 Rothshild Av./ Herzl St.","address_en":"Rothschild 11 coner of Herzl in the avenue between the trees"},{"available_bike":"4","available_spaces":"16","city":"tlv","last_update":"2012-11-12 11:08:11.680","latitude":32.0653,"location":"32.0653,34.7766","longitude":34.7766,"name":"רוטשילד 65","sid":"370","address":"רוטשילד 65 בשדרה פינת נחמני","name_en":"65 Rothschild Av./ Nachmami St.","address_en":"Rothschild 65 in the avenue corner of Nakhmani"},{"available_bike":"16","available_spaces":"12","city":"tlv","last_update":"2012-11-12 11:08:11.680","latitude":32.0629,"location":"32.0629,34.7799","longitude":34.7799,"name":"בגין 48 פינת הרכבת","sid":"371","address":"בגין 46-48 פינת הרכבת ברחבה מצידי השביל","name_en":"48 Menachem Begin Rd./ HaRakevet St.","address_en":"Begin 46-48 corner of Ha-Rakevet in the concourse to the sides of the path"},{"available_bike":"9","available_spaces":"9","city":"tlv","last_update":"2012-11-12 11:08:11.680","latitude":32.0618,"location":"32.0618,34.7844","longitude":34.7844,"name":"יד חרוצים 17 - המסגר","sid":"372","address":"יד חרוצים 17 פינת המסגר במדרכה","name_en":"17 Yad Kharutsim St./Ha-Masger","address_en":"Yad Kharutsim 17 corner of Ha-Masger on the sidewalk"},{"available_bike":"11","available_spaces":"9","city":"tlv","last_update":"2012-11-12 11:08:11.680","latitude":32.0618,"location":"32.0618,34.7731","longitude":34.7731,"name":"יהודה הלוי 43 פינת אלנבי","sid":"375","address":"יהודה הלוי 43 פינת אלנבי במדרכה ","name_en":"43 Yehuda HaLevi St./ Allenby St.","address_en":"Yehuda ha-Levi 43 corner of Allenby on the sidewalk"},{"available_bike":"7","available_spaces":"13","city":"tlv","last_update":"2012-11-12 11:08:11.680","latitude":32.0594,"location":"32.0594,34.7614","longitude":34.7614,"name":"מתחם התחנה","sid":"377","address":"מתחם התחנה -בכניסה לרחבה של המוזיאון בצד הצפוני","name_en":"Hatachana","address_en":"Ha-Takhana Campus- at the entrance to the mueseum concourse on the North side"},{"available_bike":"7","available_spaces":"11","city":"tlv","last_update":"2012-11-12 11:08:11.680","latitude":32.0621,"location":"32.0621,34.7646","longitude":34.7646,"name":"שבזי 19 -נווה צדק","sid":"379","address":"שבזי 19 נווה צדק","name_en":"Shabazi 19 Neve Tsedek","address_en":"Shabazi 19 Neve Tsedek"},{"available_bike":"2","available_spaces":"18","city":"tlv","last_update":"2012-11-12 11:08:11.680","latitude":32.0724,"location":"32.0724,34.7739","longitude":34.7739,"name":"גן מאיר - רחוב קינג גורג","sid":"380","address":"גן מאיר - רחוב קינג גורג","name_en":"King George St.- Meir Garden","address_en":"Gan Meir-King George St"},{"available_bike":"10","available_spaces":"10","city":"tlv","last_update":"2012-11-12 11:08:11.680","latitude":32.0795,"location":"32.0795,34.7797","longitude":34.7797,"name":"פרישמן 77","sid":"381","address":"פרישמן 77-שדרות חן","name_en":"77 Frishman St.","address_en":"77 Frishman St."},{"available_bike":"3","available_spaces":"17","city":"tlv","last_update":"2012-11-12 11:08:11.680","latitude":32.0563,"location":"32.0563,34.7812","longitude":34.7812,"name":"יסוד המעלה 64 - ת. מרכזית","sid":"401","address":"יסוד המעלה 64 במדרכה -התחנה המרכזית חדשה ","name_en":"64 Yesud ha-Maala  St. - Central Bus Station","address_en":"Yesud ha-Maala 64 on the sidewalk - New Central Bus Station"},{"available_bike":"1","available_spaces":"18","city":"tlv","last_update":"2012-11-12 11:08:11.680","latitude":32.0588,"location":"32.0588,34.7751","longitude":34.7751,"name":"לוינסקי 83א","sid":"402","address":"לוינסקי 83א פינת צלנוב","name_en":"83 Elhanan Eib Levinski St.","address_en":"Levinski 83 corner of Chlenov"},{"available_bike":"4","available_spaces":"22","city":"tlv","last_update":"2012-11-12 11:08:11.680","latitude":32.0556,"location":"32.0556,34.756","longitude":34.756,"name":"רציף העליה השניה - כיכר השעון","sid":"403","address":"אריאנה -רציף העליה השניה צפונית לקישלה","name_en":" The Clock Tower","address_en":"Ariana - Retsif ha-Aliya ha-Shniya north of Kishele"},{"available_bike":"14","available_spaces":"6","city":"tlv","last_update":"2012-11-12 11:08:11.680","latitude":32.0518,"location":"32.0518,34.7643","longitude":34.7643,"name":"שארית ישראל מול 37","sid":"404","address":"שארית ישראל מול 37","name_en":"Opp. 37 Sheerit Yisrael St. Bloomfield Stadium","address_en":"Opp. 37 Sheerit Yisrael St."},{"available_bike":"6","available_spaces":"14","city":"tlv","last_update":"2012-11-12 11:08:11.680","latitude":32.0546,"location":"32.0546,34.7521","longitude":34.7521,"name":"כיכר קדומים -יפו העתיקה","sid":"405","address":"- כיכר קדומים - ברחבה","name_en":"Kedumim Square – Old jaffa","address_en":"Kikar Kdumim-Old Yafo"},{"available_bike":"12","available_spaces":"7","city":"tlv","last_update":"2012-11-12 11:08:11.680","latitude":32.0481,"location":"32.0481,34.7692","longitude":34.7692,"name":"הרצל 155 - גני הטבע","sid":"406","address":"הרצל 155 גני הטבע תא ,לאורך הקיר מימין לשער","name_en":"155 Herzl St. - Botanical Garden","address_en":"Herzl 155 - Botanical Garden, along the wall to the right of the gate"},{"available_bike":"3","available_spaces":"17","city":"tlv","last_update":"2012-11-12 11:08:11.680","latitude":32.0475,"location":"32.0475,34.7595","longitude":34.7595,"name":"מכללת תא עזה מול 34","sid":"407","address":"עזה 34-מכללת תל אביב  ","name_en":"Opp. 34 Azza St. – Tlv College","address_en":"34 Aza St.-Tlv College"},{"available_bike":"1","available_spaces":"19","city":"tlv","last_update":"2012-11-12 11:08:11.680","latitude":32.0411,"location":"32.0411,34.7656","longitude":34.7656,"name":"גרינבוים 37 - נווה עופר","sid":"408","address":"גרינבוים 37 - נווה עופר","name_en":"37  Greenbaum St.","address_en":"37  Greenbaum St."},{"available_bike":"3","available_spaces":"17","city":"tlv","last_update":"2012-11-12 11:08:11.680","latitude":32.0536,"location":"32.0536,34.7501","longitude":34.7501,"name":"נמל יפו מבנה המגדלור","sid":"409","address":"נמל יפו קיר מבנה מגדלור","name_en":"Nemal Yaffo - Ha-migdalor (jaffa Port)","address_en":"Nemal Yaffo - Ha-migdalor wall"},{"available_bike":"5","available_spaces":"15","city":"tlv","last_update":"2012-11-12 11:08:11.680","latitude":32.0476,"location":"32.0476,34.7525","longitude":34.7525,"name":"יפת 66 -  גן השניים","sid":"410","address":"יפת 66 -  גן השניים","name_en":"66 Yefet St.","address_en":"66 Yefet St."},{"available_bike":"1","available_spaces":"19","city":"tlv","last_update":"2012-11-12 11:08:11.680","latitude":32.0534,"location":"32.0534,34.7553","longitude":34.7553,"name":"שוק פשפשים- רבי אחא","sid":"411","address":"שוק פשפשים- רבי אחא","name_en":"Flea market – Rabbi Aha St.","address_en":"Flea market – Rabbi Aha St."},{"available_bike":"5","available_spaces":"15","city":"tlv","last_update":"2012-11-12 11:08:11.680","latitude":32.0427,"location":"32.0427,34.7804","longitude":34.7804,"name":"ישראל גורי 34","sid":"412","address":"ישראל גורי 34","name_en":"34 Guri Yisrael St.","address_en":"34 Israel Guri St."},{"available_bike":"6","available_spaces":"13","city":"tlv","last_update":"2012-11-12 11:08:11.680","latitude":32.0372,"location":"32.0372,34.7516","longitude":34.7516,"name":"שד הבעל שם טוב נוה אילן","sid":"414","address":"שד הבעל שם טוב נוה אילן","name_en":"HaBesht Ave. – Neve Golan","address_en":"HaBesht Ave. – Neve Ilan"},{"available_bike":"5","available_spaces":"15","city":"tlv","last_update":"2012-11-12 11:08:11.680","latitude":32.0419,"location":"32.0419,34.7736","longitude":34.7736,"name":"שדרות בן צבי 91","sid":"415","address":"שדרות בן צבי 91","name_en":"91 Ben-Zvi Av.","address_en":"91 Ben-Zvi Blvd."},{"available_bike":"10","available_spaces":"18","city":"tlv","last_update":"2012-11-12 11:08:11.680","latitude":32.056,"location":"32.056,34.7698","longitude":34.7698,"name":"פלורנטין שד וושינגטון ","sid":"416","address":"פלורנטין -גינת וושינגטון","name_en":"Washington Av./ Florentin St.","address_en":"Florentin - Washington garden"},{"available_bike":"8","available_spaces":"12","city":"tlv","last_update":"2012-11-12 11:08:11.680","latitude":32.0424,"location":"32.0424,34.757","longitude":34.757,"name":"שד ירושלים פ. נחל הבשור","sid":"417","address":"שדרות ירושלים פינת נחל הבשור","name_en":"Yerushalayim Av. Nahal Habsor","address_en":"Yerushalayim Av. Nahal Habsor"},{"available_bike":"7","available_spaces":"13","city":"tlv","last_update":"2012-11-12 11:08:11.680","latitude":32.0489,"location":"32.0489,34.781","longitude":34.781,"name":"ישראל מסלנט מול 13","sid":"418","address":"ישראל מסלנט מול 13","name_en":"opp.13 Israel Misalant St.","address_en":"Opp. 13 Israel Misalant St."},{"available_bike":"4","available_spaces":"16","city":"tlv","last_update":"2012-11-12 11:08:11.680","latitude":32.0508,"location":"32.0508,34.7596","longitude":34.7596,"name":"שד ירושלים פינת בן צבי 1","sid":"420","address":"שד ירושלים פינת בן צבי 1 במדרכה צמוד לשפת הכביש  ","name_en":"Jerusalem Av./ 1 Ben Zvi Av.","address_en":"Jerusalem Blvd, cor. 1 Ben Zvi St"},{"available_bike":"4","available_spaces":"16","city":"tlv","last_update":"2012-11-12 11:08:11.680","latitude":32.0421,"location":"32.0421,34.7473","longitude":34.7473,"name":"מנדס פרנס - גינת טולוז","sid":"422","address":"מנדס פרנס 2 קדם (גינת טולוז)","name_en":"Mendes Parnas St. – Toulouse Gardens","address_en":"Mendes Parnas St. – Toulouse Gardens"},{"available_bike":"3","available_spaces":"16","city":"tlv","last_update":"2012-11-12 11:08:11.680","latitude":32.0464,"location":"32.0464,34.749","longitude":34.749,"name":"קדם 49","sid":"423","address":"קדם מול 49 - קיר דרומי חסן עראפה, רחבת ירידה לפארק מדרון  ","name_en":"49 Kedem St.","address_en":"49 Kedem St."},{"available_bike":"3","available_spaces":"17","city":"tlv","last_update":"2012-11-12 11:08:11.680","latitude":32.0319,"location":"32.0319,34.7473","longitude":34.7473,"name":"אייזיק חריף מול 36","sid":"424","address":"אייזיק חריף מול 36","name_en":"Opp. 36 Isaac Harif St.","address_en":"Isaac Harif St."},{"available_bike":"2","available_spaces":"18","city":"tlv","last_update":"2012-11-12 11:08:11.680","latitude":32.034,"location":"32.034,34.7531","longitude":34.7531,"name":"המחרוזת 9","sid":"425","address":"המחרוזת 9","name_en":"9 Machrozet St.","address_en":"9 Machrozet St."},{"available_bike":"4","available_spaces":"24","city":"tlv","last_update":"2012-11-12 11:08:11.680","latitude":32.0565,"location":"32.0565,34.7728","longitude":34.7728,"name":"העליה 49","sid":"430","address":"העליה 49","name_en":"HaAliya 49","address_en":"HaAliya 49"},{"available_bike":"4","available_spaces":"16","city":"tlv","last_update":"2012-11-12 11:08:11.680","latitude":32.0665,"location":"32.0665,34.7959","longitude":34.7959,"name":"שדרות ההשכלה 11","sid":"501","address":"שדרות ההשכלה 11","name_en":"Hahaskalla Av. / Krminitzki St.","address_en":"Sderot HaHaskala 11"},{"available_bike":"12","available_spaces":"8","city":"tlv","last_update":"2012-11-12 11:08:11.680","latitude":32.0695,"location":"32.0695,34.7939","longitude":34.7939,"name":"יגאל אלון 96","sid":"503","address":"יגאל אלון 96 במדרכה סמוך לשפת הכביש  הסרת עמודי חסימה","name_en":"96 Yigal Allon St.","address_en":"96 Yigal Allon St"},{"available_bike":"2","available_spaces":"18","city":"tlv","last_update":"2012-11-12 11:08:11.680","latitude":32.058,"location":"32.058,34.8001","longitude":34.8001,"name":"משה דיין פינת לה גרדיה","sid":"504","address":"משה דיין פינת לה גרדיה","name_en":"Moshe Dayan St./ La Guardia St.","address_en":"Moshe Dayan St. – corner of La Guardia St."},{"available_bike":"6","available_spaces":"14","city":"tlv","last_update":"2012-11-12 11:08:11.680","latitude":32.062,"location":"32.062,34.7903","longitude":34.7903,"name":"היכל נוקיה השלושה 9","sid":"507","address":"היכל נוקיה השלושה 9","name_en":"9 ha-shlosha St.- Nokia Arena","address_en":"9 ha-shlosha St.- Nokia Arena"},{"available_bike":"3","available_spaces":"17","city":"tlv","last_update":"2012-11-12 11:08:11.680","latitude":32.0646,"location":"32.0646,34.7986","longitude":34.7986,"name":"משה דיין פינת יצחק שדה","sid":"508","address":"משה דיין פינת יצחק שדה","name_en":"Moshe Dayan St./ Yitzhak Sadeh St.","address_en":"Moshe Dayan St., corner of Yitzhak Sadeh St."},{"available_bike":"4","available_spaces":"15","city":"tlv","last_update":"2012-11-12 11:08:11.680","latitude":32.0565,"location":"32.0565,34.8065","longitude":34.8065,"name":"הטייסים 40","sid":"509","address":"הטייסים 40","name_en":"40 HaTayassim Rd.","address_en":"40 HaTayassim St."},{"available_bike":"3","available_spaces":"17","city":"tlv","last_update":"2012-11-12 11:08:11.680","latitude":32.0504,"location":"32.0504,34.7981","longitude":34.7981,"name":"קרייתי מול 28","sid":"510","address":"קרייתי מול 28","name_en":"Opp. 28 Kiryati St.","address_en":"Opp. 28 Kiryati St."},{"available_bike":"6","available_spaces":"12","city":"tlv","last_update":"2012-11-12 11:08:11.680","latitude":32.0543,"location":"32.0543,34.7865","longitude":34.7865,"name":"ההגנה 31 - תחנת רכבת ההגנה","sid":"511","address":"ההגנה 31 - תחנת רכבת ההגנה","name_en":"2 Derech HaHaganah St. – HaHaganah Railway station","address_en":"2 HaHaganah St. – HaHaganah train station"},{"available_bike":"5","available_spaces":"14","city":"tlv","last_update":"2012-11-12 11:08:11.680","latitude":32.0569,"location":"32.0569,34.7918","longitude":34.7918,"name":"יגאל אלון 33 פינת שדרות החי\"ל ","sid":"512","address":"יגאל אלון 33 פינת שדרות החי\"ל ","name_en":"33 Yigal Allon St./ Hahayil","address_en":"33 Yigal Alon St. – corner of HaHayal St."},{"available_bike":"3","available_spaces":"17","city":"tlv","last_update":"2012-11-12 11:08:11.680","latitude":32.0529,"location":"32.0529,34.7996","longitude":34.7996,"name":"משה דיין 45","sid":"513","address":"משה דיין 45","name_en":"45 Moshe Dayan St.","address_en":"45 Moshe Dayan St."},{"available_bike":"6","available_spaces":"11","city":"tlv","last_update":"2012-11-12 11:08:11.680","latitude":32.0532,"location":"32.0532,34.8103","longitude":34.8103,"name":"מעפילי אגוז 59","sid":"514","address":"מעפילי אגוז 59","name_en":"59 Maapilei Egoz St.","address_en":"59 Maapilei Egoz St."},{"available_bike":"5","available_spaces":"15","city":"tlv","last_update":"2012-11-12 11:08:11.680","latitude":32.05,"location":"32.05,34.7889","longitude":34.7889,"name":"סמטת כביר 18","sid":"515","address":"סמטת כביר 18","name_en":"18 Kabir Lane","address_en":"18 Kabir Lane"},{"available_bike":"9","available_spaces":"11","city":"tlv","last_update":"2012-11-12 11:08:11.680","latitude":32.0497,"location":"32.0497,34.8121","longitude":34.8121,"name":"מחל 79","sid":"516","address":"מחל 79","name_en":"79 Mahal St.","address_en":"79 Mahal St."},{"available_bike":"5","available_spaces":"15","city":"tlv","last_update":"2012-11-12 11:08:11.680","latitude":32.045,"location":"32.045,34.8098","longitude":34.8098,"name":"דרך בר לב 186","sid":"517","address":"דרך בר לב 186","name_en":"186 Bar-Lev Rd.","address_en":"186 Bar-Lev St."},{"available_bike":"2","available_spaces":"18","city":"tlv","last_update":"2012-11-12 11:08:11.680","latitude":32.0469,"location":"32.0469,34.8","longitude":34.8,"name":"דרך בר לב 111","sid":"518","address":"דרך בר לב 111","name_en":"111 Bar-Lev Rd.","address_en":"111 Bar-Lev St."},{"available_bike":"5","available_spaces":"15","city":"tlv","last_update":"2012-11-12 11:08:11.680","latitude":32.0744,"location":"32.0744,34.8","longitude":34.8,"name":"ילקוט  הרועים 2 - נחלת יצחק","sid":"519","address":" ילקוט  הרועים 2 נחלת יצחק במדרכה צמוד לגינה מרכז קהילתי  ","name_en":"2 Yalkut HaRoim St. / Nachlat Yitzhak","address_en":"2 Yalkut HaRoim St. – Nachlat Yitzhak"},{"available_bike":"4","available_spaces":"16","city":"tlv","last_update":"2012-11-12 11:08:11.680","latitude":32.0435,"location":"32.0435,34.8047","longitude":34.8047,"name":"פארק דרום בכניסה","sid":"520","address":"פארק דרום בכניסה","name_en":"Park Darom – Entrance (Biranit St.)","address_en":"Park Darom – at the entrance (Biranit St.)"},{"available_bike":"10","available_spaces":"16","city":"tlv","last_update":"2012-11-12 11:08:11.680","latitude":32.0548,"location":"32.0548,34.7848","longitude":34.7848,"name":"תחנת רכבת ההגנה","sid":"522","address":"תחנת רכבת ההגנה","name_en":"Hahgana Railway Station","address_en":"Hahgana Railway Station"},{"available_bike":"4","available_spaces":"14","city":"tlv","last_update":"2012-11-12 11:08:11.680","latitude":32.0481,"location":"32.0481,34.7936","longitude":34.7936,"name":"אצל 93","sid":"523","address":"אצל 93","name_en":"93 Etsel St.","address_en":"93 Etzel St."},{"available_bike":"4","available_spaces":"20","city":"tlv","last_update":"2012-11-12 11:08:11.680","latitude":32.0731,"location":"32.0731,34.792","longitude":34.792,"name":"עזריאלי-בירידה לאיילון דרום","sid":"525","address":"עזריאלי-בירידה לאיילון דרום","name_en":"Opp. Azrieli Center - Ayalon South","address_en":"Opp. Azrieli Center - Ayalon South"},{"available_bike":"3","available_spaces":"17","city":"tlv","last_update":"2012-11-12 11:08:11.680","latitude":32.0593,"location":"32.0593,34.7897","longitude":34.7897,"name":"לה גווארדיה 24","sid":"526","address":"לה גווארדיה 24","name_en":"24 La Guardia","address_en":"24 La Guardia"}]